X,Y,OBJECTID,DIRECCION_INCIDENTE,TIPO_DE_INCIDENTE,TIPO_DE_ACTORES_VIALES_IMPLICAD,AFECTACIÓN_PERSONAS,FECHA_INCIDENTE__DD_MM_AAAA_,LATITUD,LONGITUD
-74.1001764,4.68035670015373,1,Av Boyacá con Carrera 4,Choque simple,Bus / buseta (1) - Automóvil particular (1),Sin lesionados,2025/05/01 00:00:00+00,4.6803567,-74.1001764
-74.1243762999999,4.61088360015143,2,Transversal 53 con Calle 19 sur,Choque con lesionado,Camioneta (1) - Motociclista lesionado (1),Con lesionados,2025/05/01 00:00:00+00,4.6108836,-74.1243763
-74.0490756999999,4.67421040015352,3,"Autopista Norte con Calle 92, sentido s→n",Choque con lesionado,Automóvil particular (1) - Motociclista lesionado (1),Con lesionados,2025/05/01 00:00:00+00,4.6742104,-74.0490757
-74.1942768,4.6053832001513,4,Calle 71 sur con Carrera 80,Choque con lesionado,Motociclista lesionado (2),Con lesionados,2025/05/01 00:00:00+00,4.6053832,-74.1942768
-74.1248796,4.58873180015075,5,"Carrera 33 con Calle 40B sur, sentido n→s",Choque simple,Taxi (1) - Motocicleta (1),Sin lesionados,2025/05/01 00:00:00+00,4.5887318,-74.1248796
-74.1287483999999,4.68823290015399,6,"Av El Dorado (Calle 26) con Carrera 100, sentido occ→or",Choque simple,Taxi (1) - Automóvil particular (1),Sin lesionados,2025/05/01 00:00:00+00,4.6882329,-74.1287484
-74.1371435,4.67166160015344,7,"Carrera 96C con Calle 21A, sentido s→n",Choque simple,Taxi (1) - Automóvil particular (1),Sin lesionados,2025/05/01 00:00:00+00,4.6716616,-74.1371435
-74.1512994,4.67176230015346,8,Diagonal 16B con Carrera 104,Choque simple,Automóvil particular (2),Sin lesionados,2025/05/01 00:00:00+00,4.6717623,-74.1512994
-74.0944909999999,4.74158670015569,9,Calle 140A con Carrera 102,Autolesionado,Motociclista lesionado (1),Con lesionados,2025/05/01 00:00:00+00,4.7415867,-74.094491
-74.0973304999999,4.7347244001555,10,Calle 132 con Carrera 102,Choque simple,Bus SITP (1) - Taxi (1),Sin lesionados,2025/05/01 00:00:00+00,4.7347244,-74.0973305
-74.0713969,4.61194090015148,11,Av Centenario (Calle 13) con Carrera 10,Choque simple,Camión (1) - Automóvil particular (1),Sin lesionados,2025/05/01 00:00:00+00,4.6119409,-74.0713969
-74.1001764,4.68035670015373,12,Av Boyacá con Calle 87C sur,Choque simple,Automóvil particular (2),Sin lesionados,2025/05/01 00:00:00+00,4.6803567,-74.1001764
-74.118183,4.65915260015301,13,"NQS con Calle 23, sentido n→s",Autolesionado,Motociclista lesionado (1),Con lesionados,2025/05/01 00:00:00+00,4.6591526,-74.118183
-74.0778692,4.59022940015079,14,NQS con Av Comuneros,Choque con lesionado,Automóvil particular (1) - Motociclista lesionado (1),Con lesionados,2025/05/01 00:00:00+00,4.5902294,-74.0778692
-74.0162869,4.6706751001534,15,Vía Bogotá - La Calera con km 2,Autolesionado,Motociclista lesionado (1),Con lesionados,2025/05/01 00:00:00+00,4.6706751,-74.0162869
-74.1559106999999,4.67109830015341,16,Carrera 106 con Calle 15A,Autolesionado,Motociclista lesionado (1),Con lesionados,2025/05/01 00:00:00+00,4.6710983,-74.1559107
-74.0788338,4.67675550015362,17,Carrera 62 con Calle 76,Choque simple,Motocicleta (2),Sin lesionados,2025/05/01 00:00:00+00,4.6767555,-74.0788338
-74.0637705,4.6346591001522,18,"Av Carrera 7 con Calle 48, sentido s→n",Autolesionado,Motociclista lesionado (1),Con lesionados,2025/05/01 00:00:00+00,4.6346591,-74.0637705
-74.0877383,4.64707640015265,19,Carrera 52 con Calle 46 sur,Choque con lesionado,Automóvil particular (1) - Taxi (1) - Conductor lesionado (1),Con lesionados,2025/05/01 00:00:00+00,4.6470764,-74.0877383
-74.0906125,4.58414750015057,20,Calle 10 con Carrera 11,Choque simple,Camioneta (1) - Taxi (1),Sin lesionados,2025/05/01 00:00:00+00,4.5841475,-74.0906125
-74.0720919999999,4.71098860015473,21,Calle 43 sur con Carrera 77,Choque con lesionado,Camioneta (1) - Motociclista lesionado (1) - Conductor lesionado (1),Con lesionados,2025/05/01 00:00:00+00,4.7109886,-74.072092
-74.0634001999999,4.66874270015334,22,"Carrera 24 con Av Calle 80, sentido n→s",Autolesionado,Motociclista lesionado (1),Con lesionados,2025/05/01 00:00:00+00,4.6687427,-74.0634002
-74.0757627,4.65960970015302,23,Carrera 28B con Calle 65,Choque con objeto fijo,Automóvil particular (1) - Señal de tránsito (1),Sin lesionados,2025/05/01 00:00:00+00,4.6596097,-74.0757627
-74.1076198,4.73470050015547,24,Carrera 123 con Calle 129D,Autolesionado,Motociclista lesionado (1),Con lesionados,2025/05/01 00:00:00+00,4.7347005,-74.1076198
-74.1535739999999,4.68461280015383,25,"Carrera 116 con Calle 18, sentido n→s",Atropello,Automóvil particular (1) - Peatón lesionado (1),Con lesionados,2025/05/01 00:00:00+00,4.6846128,-74.153574
-74.0903876,4.63433500015219,26,"Av Ciudad de Cali con Av El Dorado (Calle 26), sentido n→s",Choque con lesionado,Automóvil particular (1) - Motociclista lesionado (1) - Acompañante lesionado (1),Con lesionados,2025/05/01 00:00:00+00,4.634335,-74.0903876
-74.031592,4.74804400015592,27,Calle 170 con Carrera 9,Choque con lesionado,Motociclista lesionado (2),Con lesionados,2025/05/01 00:00:00+00,4.748044,-74.031592
-74.1378,4.63044000015207,28,"Av Boyacá con Av Américas, sentido n→s",Choque con lesionado,Automóvil particular (1) - Motociclista lesionado (1),Con lesionados,2025/05/01 00:00:00+00,4.63044,-74.1378
-74.0805033999999,4.62728070015197,29,Carrera 29B con Av Chile (Calle 72),Choque con objeto fijo,Automóvil particular (3) - Vivienda (1),Sin lesionados,2025/05/01 00:00:00+00,4.6272807,-74.0805034
-74.0591146,4.64137370015244,30,"Av Circunvalar con Calle 57, sentido n→s",Choque con lesionado,Motocicleta (2) - Motociclista lesionado (1),Con lesionados,2025/05/01 00:00:00+00,4.6413737,-74.0591146
-74.1888648,4.63739010015233,31,Carrera 95A con Calle 85 sur,Autolesionado,Motociclista lesionado (1) - Acompañante lesionado (1),Con lesionados,2025/05/01 00:00:00+00,4.6373901,-74.1888648
-74.1613272,4.61174850015147,32,"Av Ciudad de Villavicencio con Carrera 78, sentido occ→or",Choque simple,,Sin lesionados,2025/05/01 00:00:00+00,4.6117485,-74.1613272
-74.0559132,4.67441150015355,33,"Calle 88 con Carrera 18, sentido occ→or",Choque con lesionado,Automóvil particular (1) - Motociclista lesionado (1),Con lesionados,2025/05/01 00:00:00+00,4.6744115,-74.0559132
-74.0450336,4.75859440015627,34,"Autopista Norte con Calle 191, sentido n→s",Choque simple,Bus SITP (1) - Automóvil particular (1),Sin lesionados,2025/05/01 00:00:00+00,4.7585944,-74.0450336
-74.0636517999999,4.6730152001535,35,Carrera 19 con Calle 85,Choque simple,Automóvil particular (1) - Motocicleta (1),,2025/05/01 00:00:00+00,4.6730152,-74.0636518
-74.0997637999999,4.60413410015126,36,NQS con Calle 4A,Choque simple,Automóvil particular (2),Sin lesionados,2025/05/01 00:00:00+00,4.6041341,-74.0997638
-74.1282146999999,4.68695430015391,37,"Av El Dorado (Calle 26) con Carrera 98, sentido or→occ",Choque con lesionado,Motocicleta (1) - Ciclista lesionado (1),Con lesionados,2025/05/01 00:00:00+00,4.6869543,-74.1282147
-74.0717084,4.59825030015107,38,Carrera 4 con Calle 12B,Choque con lesionado,Taxi (1) - Vehículo de servicio oficial (1) - Conductor lesionado (1),Con lesionados,2025/05/01 00:00:00+00,4.5982503,-74.0717084
-74.1092211,4.59794860015104,39,Av Primero de Mayo con Transversal 31,Choque con lesionado,Motocicleta (2) - Motociclista lesionado (1),Con lesionados,2025/05/01 00:00:00+00,4.5979486,-74.1092211
-74.0547643,4.70693250015459,40,Transversal 5C con Calle 127,Choque objeto fijo con lesionado,Automóvil particular (1) - Andén (1) - Conductor lesionado (1),Con lesionados,2025/05/01 00:00:00+00,4.7069325,-74.0547643
-74.0561549999999,4.69534690015422,41,"Autopista Norte con Calle 108, sentido n→s",Choque con lesionado,Taxi (1) - Motociclista lesionado (1),Con lesionados,2025/05/01 00:00:00+00,4.6953469,-74.056155
-74.0878288,4.6947594001542,42,Av Ciudad de Cali con Av Calle 80,Autolesionado,Motociclista lesionado (1),Con lesionados,2025/05/01 00:00:00+00,4.6947594,-74.0878288
-74.0878288,4.6947594001542,43,"Av Calle 80 con Carrera 119B, sentido or→occ",Varado,Tractocamión (1),Sin lesionados,2025/05/01 00:00:00+00,4.6947594,-74.0878288
-74.1378563,4.59429950015091,44,Carrera 53 con Calle 45 sur,Choque con lesionado,Automóvil particular (1) - Motociclista lesionado (1),Con lesionados,2025/05/01 00:00:00+00,4.5942995,-74.1378563
-74.1618746,4.60232070015119,45,Av Ciudad de Villavicencio con Autopista Sur,"Sustancia química en vía (aceite, ACPM, otros)",Aceite (1),Sin lesionados,2025/05/01 00:00:00+00,4.6023207,-74.1618746
-74.1001764,4.68035670015373,46,"Av Boyacá con Carrera 6, sentido n→s",Atropello,Motociclista lesionado (1) - Animal de compañía (1),Con lesionados,2025/05/01 00:00:00+00,4.6803567,-74.1001764
-74.1618746,4.60232070015119,47,"Av Ciudad de Villavicencio con Autopista Sur, sentido n→s",Autolesionado,Motociclista lesionado (2),Con lesionados,2025/05/01 00:00:00+00,4.6023207,-74.1618746
-74.0903876,4.63433500015219,48,"Av Boyacá con Av El Dorado (Calle 26), sentido s→n",Varado,Bus SITP (1),Sin lesionados,2025/05/01 00:00:00+00,4.634335,-74.0903876
-74.1548610999999,4.53871670014912,49,Diagonal 77 sur con Carrera 24B,Autolesionado,Motociclista lesionado (1),Con lesionados,2025/05/01 00:00:00+00,4.5387167,-74.1548611
-74.1001764,4.68035670015373,50,"Av Boyacá con Carrera 3C, sentido occ→or",Choque con lesionado,Taxi (1) - Motociclista lesionado (1),Con lesionados,2025/05/01 00:00:00+00,4.6803567,-74.1001764
-74.1747731,4.63624320015226,51,"Av Guayacanes con Av Ciudad de Villavicencio, sentido s→n",Choque simple,Automóvil particular (2),Sin lesionados,2025/05/01 00:00:00+00,4.6362432,-74.1747731
-74.0943192,4.61660330015167,52,Calle 13 con Carrera 33,Choque con lesionado,Automóvil particular (3) - Conductor lesionado (1),Con lesionados,2025/05/01 00:00:00+00,4.6166033,-74.0943192
-74.0647858999999,4.74715080015588,53,Av Boyacá con Calle 163,Choque simple,Tractocamión (1) - Automóvil particular (1),Sin lesionados,2025/05/01 00:00:00+00,4.7471508,-74.0647859
-74.1507658,4.61405130015155,54,Carrera 73 con Calle 40 sur,Autolesionado,Motociclista lesionado (1),Con lesionados,2025/05/01 00:00:00+00,4.6140513,-74.1507658
-74.1536131999999,4.57883520015044,55,Carrera 48G con Calle 59A sur,Choque simple,Taxi (1) - Automóvil particular (1),Sin lesionados,2025/05/01 00:00:00+00,4.5788352,-74.1536132
-74.1587051,4.6518031001528,56,Calle 6D con Carrera 92,Choque con lesionado,Taxi (1) - Ciclista lesionado (1),Con lesionados,2025/05/01 00:00:00+00,4.6518031,-74.1587051
-74.169749,4.57721410015037,57,Calle 75A sur con Carrera 73G,Choque con lesionado,Automóvil particular (1) - Motociclista lesionado (1),Con lesionados,2025/05/01 00:00:00+00,4.5772141,-74.169749
-74.1029498999999,4.65219300015282,58,"Av El Dorado (Calle 26) con Av Ciudad de Cali, sentido or→occ",Volcamiento con lesionado,Automóvil particular (2) - Conductor lesionado (1),Con lesionados,2025/05/01 00:00:00+00,4.652193,-74.1029499
-74.1262389,4.58790190015068,59,Av Gaitán Cortés con Calle 58A sur,Choque con lesionado,Taxi (1) - Motociclista lesionado (1),Con lesionados,2025/05/01 00:00:00+00,4.5879019,-74.1262389
-74.0647858999999,4.74715080015588,60,Av Boyacá con Calle 163,Autolesionado,Ciclista lesionado (1),Con lesionados,2025/05/01 00:00:00+00,4.7471508,-74.0647859
-74.1879274999999,4.61621700015164,61,Carrera 82H con Calle 62 sur,Choque simple,Vehículo de servicio oficial (1) - Carreta (1),Sin lesionados,2025/05/01 00:00:00+00,4.616217,-74.1879275
-74.0429952,4.750383000156,62,"Calle 170 con Carrera 20, sentido or→occ",Choque con lesionado,Motociclista lesionado (2),Con lesionados,2025/05/01 00:00:00+00,4.750383,-74.0429952
-74.1295014999999,4.65806150015298,63,Carrera 80 con Calle 2 sur,Choque simple,Automóvil particular (1) - Carreta (1),Sin lesionados,2025/05/01 00:00:00+00,4.6580615,-74.1295015
-74.1264323999999,4.69768910015428,64,"Carrera 105C con Calle 64B, sentido occ→or",Choque con lesionado,Automóvil particular (1) - Motociclista lesionado (1),Con lesionados,2025/05/01 00:00:00+00,4.6976891,-74.1264324
-74.0617708,4.72504530015516,65,Calle 137 con Carrera 55A,"Caída de objetos en vía (árbol, cables, otros)",Árbol (1),Sin lesionados,2025/05/01 00:00:00+00,4.7250453,-74.0617708
-74.1123749,4.68634720015392,66,Av Ciudad de Cali con Calle 64G,Choque con lesionado,Automóvil particular (1) - Motociclista lesionado (1) - Acompañante lesionado (1),Con lesionados,2025/05/01 00:00:00+00,4.6863472,-74.1123749
-74.109178,4.62910180015207,67,"Av Centenario (Calle 13) con Av Boyacá, sentido or→occ",Choque simple,Bus / buseta (1) - Automóvil particular (1),Sin lesionados,2025/05/01 00:00:00+00,4.6291018,-74.109178
-74.0962456,4.6857920001539,68,Av Boyacá con Calle 71 sur,Choque simple,Tractocamión (1) - Bus SITP (1),Sin lesionados,2025/05/01 00:00:00+00,4.685792,-74.0962456
-74.1706414,4.61389910015154,69,Calle 52 sur con Carrera 79,Choque simple,Automóvil particular (2),Sin lesionados,2025/05/01 00:00:00+00,4.6138991,-74.1706414
-74.0725363999999,4.60906850015139,70,Carrera 130 con Calle 22,Autolesionado,Motociclista lesionado (1),Con lesionados,2025/05/01 00:00:00+00,4.6090685,-74.0725364
-74.0903876,4.63433500015219,71,"Av Boyacá con Av El Dorado (Calle 26), sentido s→n",Autolesionado,Motociclista lesionado (1),Con lesionados,2025/05/01 00:00:00+00,4.634335,-74.0903876
-74.0836505999999,4.6144873001516,72,Av Calle 19 con Carrera 22,Choque simple,Automóvil particular (2),Sin lesionados,2025/05/01 00:00:00+00,4.6144873,-74.0836506
-74.0717850999999,4.65449340015287,73,Av Carrera 24 con Calle 63D,Autolesionado,Motociclista lesionado (1),Con lesionados,2025/05/01 00:00:00+00,4.6544934,-74.0717851
-74.1153646,4.57763480015038,74,Carrera 19 con Calle 33,Choque simple,Automóvil particular (2),Sin lesionados,2025/05/01 00:00:00+00,4.5776348,-74.1153646
-74.0679181,4.5815219001505,75,Transversal 2B bis con Calle 37 sur,Autolesionado,Motociclista lesionado (1),Con lesionados,2025/05/01 00:00:00+00,4.5815219,-74.0679181
-74.0793295999999,4.63483190015224,76,"Calle 45 con NQS, sentido or→occ",Autolesionado,Motociclista lesionado (1),Con lesionados,2025/05/01 00:00:00+00,4.6348319,-74.0793296
-74.1288867,4.69972580015437,77,Calle 64 bis con Carrera 107C,Atropello,Motocicleta (1) - Peatón lesionado (1),Con lesionados,2025/05/01 00:00:00+00,4.6997258,-74.1288867
-74.1647854999999,4.61686990015164,78,Calle 56 sur con Carrera 78N,Atropello,Automóvil particular (1) - Peatón lesionado (1),Con lesionados,2025/05/01 00:00:00+00,4.6168699,-74.1647855
-74.0347705999999,4.68897930015399,79,"Av Carrera 7 con Calle 164, sentido s→n",Atropello,Camioneta (1) - Peatón lesionado (1),Con lesionados,2025/05/01 00:00:00+00,4.6889793,-74.0347706
-74.1241363,4.57626170015031,80,Calle 44 sur con Carrera 21,Choque simple,Camioneta (1) - Automóvil particular (1),Sin lesionados,2025/05/01 00:00:00+00,4.5762617,-74.1241363
-74.1238941,4.60413770015121,81,Av Boyacá con Av Primero de Mayo,Autolesionado,Motociclista lesionado (1),Con lesionados,2025/05/01 00:00:00+00,4.6041377,-74.1238941
-74.1669515999999,4.62886300015202,82,Calle 42A sur con Carrera 82B,Autolesionado,Motociclista lesionado (1),Con lesionados,2025/05/01 00:00:00+00,4.628863,-74.1669516
-74.085975,4.75554230015618,83,Calle 156B con Carrera 99,Choque simple,Bus / buseta (1) - Automóvil particular (1),Sin lesionados,2025/05/01 00:00:00+00,4.7555423,-74.085975
-74.091219,4.60473500015128,84,Diagonal 38A sur con Carrera 23,Atropello,Motocicleta (1) - Peatón lesionado (1),Con lesionados,2025/05/01 00:00:00+00,4.604735,-74.091219
-74.1359404,4.63937730015237,85,"Av Boyacá con Calle 9, sentido s→n",Choque simple,Automóvil particular (1) - Motocicleta (1),Sin lesionados,2025/05/01 00:00:00+00,4.6393773,-74.1359404
-74.1585788,4.6065389001513,86,Carrera 73 con Calle 44B sur,Choque con lesionado,Motociclista lesionado (2) - Acompañante lesionado (1),Con lesionados,2025/05/01 00:00:00+00,4.6065389,-74.1585788
-74.1245425,4.63325580015217,87,Carrera 85A con Calle 9C,Choque simple,Automóvil particular (2),Sin lesionados,2025/05/01 00:00:00+00,4.6332558,-74.1245425
-74.1159954,4.61204230015149,88,Calle 2A con Carrera 7A este,"Caída de objetos en vía (árbol, cables, otros)",Árbol (1),Sin lesionados,2025/05/01 00:00:00+00,4.6120423,-74.1159954
-74.0800199999999,4.6297900001521,89,Av El Dorado (Calle 26) con Carrera 36,Manifestación,Peatón,Sin lesionados,2025/05/01 00:00:00+00,4.62979,-74.08002
-74.0664758999999,4.62339040015188,90,Av Carrera 7 con Calle 36,Manifestación,Peatón,Sin lesionados,2025/05/01 00:00:00+00,4.6233904,-74.0664759
-74.0687384999999,4.63265680015218,91,Calle 45 con Carrera 15,Manifestación,Peatón (350),Sin lesionados,2025/05/01 00:00:00+00,4.6326568,-74.0687385
-74.0594576,4.65676100015298,92,Av Chile (Calle 72) con Carrera 11,Manifestación,Peatón (100),Sin lesionados,2025/05/01 00:00:00+00,4.656761,-74.0594576
-74.102653,4.58129080015048,93,Av Caracas con Av Primero de Mayo,Manifestación,Peatón (250),Sin lesionados,2025/05/01 00:00:00+00,4.5812908,-74.102653
-74.0702158,4.60999430015142,94,Av Carrera 7 con Calle 24,Manifestación,Peatón (300),Sin lesionados,2025/05/01 00:00:00+00,4.6099943,-74.0702158
-74.1304856,4.71941020015497,95,Calle 74A con Carrera 117,Choque simple,Bus / buseta (1) - Automóvil particular (1),Sin lesionados,2025/05/01 00:00:00+00,4.7194102,-74.1304856
-74.1262389,4.58790190015068,96,"Av Ciudad de Villavicencio con Av Gaitán Cortés, sentido or→occ",Choque con lesionado,Motociclista lesionado (2),Con lesionados,2025/05/01 00:00:00+00,4.5879019,-74.1262389
-74.0488723,4.7346438001555,97,"Autopista Norte con Calle 152, sentido n→s",Choque simple,Automóvil particular (1) - Motocicleta (1),Sin lesionados,2025/05/01 00:00:00+00,4.7346438,-74.0488723
-74.1331716,4.59478410015091,98,Av Carrera 68 con Autopista Sur,Choque con lesionado,Automóvil particular (1) - Motociclista lesionado (1),Con lesionados,2025/05/01 00:00:00+00,4.5947841,-74.1331716
-74.1446771,4.59538640015096,99,Av Boyacá con Autopista Sur,Choque con lesionado,Automóvil particular (1) - Motociclista lesionado (1),Con lesionados,2025/05/01 00:00:00+00,4.5953864,-74.1446771
-74.1070071999999,4.57231600015021,100,Carrera 3 con Calle 31F sur,Choque simple,Automóvil particular (2),Sin lesionados,2025/05/01 00:00:00+00,4.572316,-74.1070072
-74.2126097,4.61188000015149,101,Calle 86 sur con Carrera 77L,Choque simple,Automóvil particular (9),Sin lesionados,2025/05/01 00:00:00+00,4.61188,-74.2126097
-74.0619465999999,4.69146900015408,102,Calle 103B con Carrera 51,Choque simple,Automóvil particular (2),Sin lesionados,2025/05/01 00:00:00+00,4.691469,-74.0619466
-74.0974194999999,4.70031930015436,103,"Av Calle 80 con Carrera 81, sentido occ→or",Choque con lesionado,Automóvil particular (1) - Motociclista lesionado (1) - Acompañante lesionado (1),Con lesionados,2025/05/01 00:00:00+00,4.7003193,-74.0974195
-74.1375785,4.65757750015299,104,"Av Ciudad de Cali con Calle 15A, sentido s→n",Choque simple,Automóvil particular (2),Sin lesionados,2025/05/01 00:00:00+00,4.6575775,-74.1375785
-74.1373421,4.6329175001522,105,"Av Boyacá con Calle 7A, sentido s→n",Manifestación,Peatón (20),Sin lesionados,2025/05/01 00:00:00+00,4.6329175,-74.1373421
-74.1435628999999,4.66988780015336,106,Carrera 96H con Calle 17,Choque simple,Camioneta (1) - Motocarro / Mototriciclo (1),Sin lesionados,2025/05/01 00:00:00+00,4.6698878,-74.1435629
-74.1085055999999,4.70672010015457,107,Av Calle 80 con Carrera 94K,Choque simple,Bus articulado / biarticulado (1) - Motocicleta (1),Sin lesionados,2025/05/01 00:00:00+00,4.7067201,-74.1085056
-74.1006892,4.73125830015536,108,"Carrera 104 con Av Calle 68, sentido occ→or",Atropello,Automóvil particular (1) - Peatón lesionado (1),Con lesionados,2025/05/01 00:00:00+00,4.7312583,-74.1006892
-74.0421370999999,4.77530350015683,109,"Autopista Norte con Calle 197, sentido n→s",Choque con lesionado,Automóvil particular (1) - Motociclista lesionado (1),Con lesionados,2025/05/01 00:00:00+00,4.7753035,-74.0421371
-74.0673159999999,4.67593630015357,110,Carrera 50 con Calle 85A,Choque simple,Automóvil particular (2),Sin lesionados,2025/05/01 00:00:00+00,4.6759363,-74.067316
-74.0553558999999,4.72582440015517,111,Carrera 52 con Calle 141,Choque simple,Automóvil particular (1) - Motocicleta (1),Sin lesionados,2025/05/01 00:00:00+00,4.7258244,-74.0553559
-74.090796,4.74202870015572,112,Av Suba con Carrera 99A,Choque simple,Automóvil particular (1) - Motocicleta (1),Sin lesionados,2025/05/01 00:00:00+00,4.7420287,-74.090796
-74.1618746,4.60232070015119,113,Av Boyacá con Av Ciudad de Villavicencio,Choque objeto fijo con lesionado,Motociclista lesionado (1) - Andén (1),Con lesionados,2025/05/01 00:00:00+00,4.6023207,-74.1618746
-74.1390405,4.68212900015376,114,Calle 23D con Carrera 103B,Choque con lesionado,Automóvil particular (1) - Motocicleta (1),Con lesionados,2025/05/01 00:00:00+00,4.682129,-74.1390405
-74.0576598,4.73834130015561,115,Carrera 55 con Calle 152B,Atropello,Automóvil particular (1) - Peatón lesionado (1),Con lesionados,2025/05/01 00:00:00+00,4.7383413,-74.0576598
-74.1549224,4.59662110015099,116,Autopista Sur con Carrera 64,Choque con lesionado,Automóvil particular (1) - Motociclista lesionado (1),Con lesionados,2025/05/01 00:00:00+00,4.5966211,-74.1549224
-74.0398794,4.72073480015504,117,Carrera 13 con Calle 140,Atropello,Bicicleta (1) - Peatón lesionado (1),Con lesionados,2025/05/01 00:00:00+00,4.7207348,-74.0398794
-74.1034642,4.75248580015606,118,Carrera 115 con Calle 148,Autolesionado,Motociclista lesionado (1),Con lesionados,2025/05/01 00:00:00+00,4.7524858,-74.1034642
-74.1037699,4.58737220015071,119,Calle 18 sur con Carrera 24C,Choque simple,Automóvil particular (2),Sin lesionados,2025/05/01 00:00:00+00,4.5873722,-74.1037699
-74.1206577999999,4.56913120015012,120,Diagonal 45F sur con Carrera 17H,Atropello,Automóvil particular (1) - Peatón lesionado (1),Con lesionados,2025/05/01 00:00:00+00,4.5691312,-74.1206578
-74.078971,4.66186080015312,121,Calle 65 con Carrera 50B,Choque simple,Automóvil particular (2),Sin lesionados,2025/05/01 00:00:00+00,4.6618608,-74.078971
-74.1656756,4.59595420015098,122,Autopista Sur con Carrera 72D,Choque con lesionado,Bus SITP (1) - Automóvil particular (1) - Ciclista lesionado (1),Con lesionados,2025/05/01 00:00:00+00,4.5959542,-74.1656756
-74.1375785,4.65757750015299,123,Av Ciudad de Cali con Calle 15A,Varado,Automóvil particular (1),Sin lesionados,2025/05/01 00:00:00+00,4.6575775,-74.1375785
-74.1103098999999,4.62221580015183,124,Av Primero de Mayo con Carrera 50,Choque simple,Automóvil particular (1) - Motocicleta (2),Sin lesionados,2025/05/01 00:00:00+00,4.6222158,-74.1103099
-74.0636517999999,4.6730152001535,125,Carrera 5 con Calle 85,Choque simple,Automóvil particular (2),Sin lesionados,2025/05/01 00:00:00+00,4.6730152,-74.0636518
-74.0798694,4.60382570015125,126,Carrera 27 con Av Jiménez (Calle 13),Choque con lesionado,Motociclista lesionado (1) - Ciclista lesionado (1),Con lesionados,2025/05/01 00:00:00+00,4.6038257,-74.0798694
-74.04502,4.76049000015634,127,"Calle 183 con Autopista Norte, sentido occ→or",Varado,Tractocamión (1),Sin lesionados,2025/05/01 00:00:00+00,4.76049,-74.04502
-74.1770296999999,4.62063290015176,128,Av Gaitán Cortés con Calle 53B sur,Atropello,Motocicleta (1) - Peatón lesionado (1),Con lesionados,2025/05/01 00:00:00+00,4.6206329,-74.1770297
-74.1127554999999,4.57736440015034,129,Av Caracas con Calle 31D sur,Choque con lesionado,Camioneta (1) - Motociclista lesionado (1),Con lesionados,2025/05/01 00:00:00+00,4.5773644,-74.1127555
-74.1158273,4.66135580015307,130,"Av El Dorado (Calle 26) con Av Boyacá, sentido occ→or",Choque simple,Automóvil particular (2),Sin lesionados,2025/05/01 00:00:00+00,4.6613558,-74.1158273
-74.0488314999999,4.70559830015457,131,"Carrera 19 con Calle 127, sentido n→s",Choque simple,Automóvil particular (2),Sin lesionados,2025/05/01 00:00:00+00,4.7055983,-74.0488315
-74.124673,4.72609050015521,132,"Av Calle 80 con Carrera 119, sentido or→occ",Varado,Tractocamión (1),Sin lesionados,2025/05/01 00:00:00+00,4.7260905,-74.124673
-74.0533114,4.71221460015474,133,"Autopista Norte con Calle 128, sentido n→s",Choque simple,Automóvil particular (3),Sin lesionados,2025/05/01 00:00:00+00,4.7122146,-74.0533114
-74.1181372999999,4.62879130015204,134,"Av Américas con Calle 42B, sentido or→occ",Choque simple,Vehículo de valores (1) - Automóvil particular (1),Sin lesionados,2025/05/01 00:00:00+00,4.6287913,-74.1181373
-74.1136433,4.66387310015318,135,"Av Boyacá con Calle 25, sentido n→s",Choque simple,Automóvil particular (2),Sin lesionados,2025/05/01 00:00:00+00,4.6638731,-74.1136433
-74.1281109,4.56120710014984,136,"Carrera 12D con Calle 55A sur, sentido n→s",Choque con lesionado,Taxi (1) - Motocicleta (2) - Conductor lesionado (1),Con lesionados,2025/05/01 00:00:00+00,4.5612071,-74.1281109
-74.1001764,4.68035670015373,137,"Av Boyacá con Calle 6, sentido s→n",Choque simple,Camioneta (1) - Motocicleta (1),Sin lesionados,2025/05/01 00:00:00+00,4.6803567,-74.1001764
-74.1126963999999,4.6561232001529,138,"NQS con Av La Esperanza, sentido s→n",Choque con lesionado,Automóvil particular (1) - Motociclista lesionado (1),Con lesionados,2025/05/01 00:00:00+00,4.6561232,-74.1126964
-74.1739746,4.64283180015252,139,"Carrera 93C con Calle 42 sur, sentido n→s",Choque con lesionado,Motocicleta (2) - Conductor lesionado (1),Con lesionados,2025/05/01 00:00:00+00,4.6428318,-74.1739746
-74.0720919999999,4.71098860015473,140,"Autopista Sur con Carrera 65, sentido or→occ",Choque con lesionado,Automóvil particular (1) - Motociclista lesionado (1),Con lesionados,2025/05/01 00:00:00+00,4.7109886,-74.072092
-74.1001764,4.68035670015373,141,"Av Boyacá con Calle 74A, sentido s→n",Choque con lesionado,Tractocamión (1) - Bus / buseta (1) - Motociclista lesionado (1),Con lesionados,2025/05/01 00:00:00+00,4.6803567,-74.1001764
-74.1661482,4.61014720015141,142,"Calle 49 sur con Carrera 77X, sentido or→occ",Choque simple,Bus / buseta (1) - Motocicleta (1),Sin lesionados,2025/05/01 00:00:00+00,4.6101472,-74.1661482
-74.1129812,4.66922260015338,143,"Av El Dorado (Calle 26) con Carrera 73A, sentido occ→or",Choque con lesionado,Automóvil particular (2) - Acompañante lesionado (1),Con lesionados,2025/05/01 00:00:00+00,4.6692226,-74.1129812
-74.0773454,4.7590374001563,144,"Calle 170 con Carrera 92, sentido or→occ",Varado,Bus SITP (1),Sin lesionados,2025/05/01 00:00:00+00,4.7590374,-74.0773454
-74.0750798,4.61103030015145,145,"NQS con Calle 22, sentido n→s",Choque con lesionado,Motociclista lesionado (2),Con lesionados,2025/05/01 00:00:00+00,4.6110303,-74.0750798
-74.0766847,4.66600030015327,146,Calle 70 con Carrera 51,Choque con lesionado,Automóvil particular (1) - Motociclista lesionado (1),Con lesionados,2025/05/01 00:00:00+00,4.6660003,-74.0766847
-74.0871873999999,4.53007460014881,147,Carrera 14H este con Calle 62 sur,Atropello,Motocicleta (1) - Animal de compañía (1),Con lesionados,2025/05/01 00:00:00+00,4.5300746,-74.0871874
-74.0962623999999,4.71002580015468,148,Carrera 87 con Calle 89,Choque con lesionado,Automóvil particular (1) - Motociclista lesionado (1),Con lesionados,2025/05/01 00:00:00+00,4.7100258,-74.0962624
-74.0987140999999,4.60740130015135,149,"Calle 6 con Carrera 31, sentido or→occ",Choque con lesionado,Camioneta (1) - Motociclista lesionado (1),,2025/05/01 00:00:00+00,4.6074013,-74.0987141
-74.0896913,4.59952230015109,150,"Av Comuneros con Carrera 31, sentido or→occ",Choque con lesionado,Camioneta (1) - Motociclista lesionado (1),Con lesionados,2025/05/01 00:00:00+00,4.5995223,-74.0896913
-74.1900995999999,4.60599030015128,151,Calle 68A sur con Carrera 80F,Atropello,Motocicleta (1) - Peatón lesionado (1),Con lesionados,2025/05/01 00:00:00+00,4.6059903,-74.1900996
-74.0828979999999,4.60594520015131,152,"Av Centenario (Calle 13) con Av Carrera 68, sentido or→occ",Choque con lesionado,Automóvil particular (1) - Motociclista lesionado (1),Con lesionados,2025/05/01 00:00:00+00,4.6059452,-74.082898
-74.1125339,4.65609440015291,153,Av La Esperanza con Carrera 69B,Choque con lesionado,Automóvil particular (1) - Ciclista lesionado (1),Con lesionados,2025/05/01 00:00:00+00,4.6560944,-74.1125339
-74.1104379,4.55692990014971,154,Calle 48J sur con Carrera 5G,Choque con objeto fijo,Automóvil particular (1) - Andén (1),Sin lesionados,2025/05/01 00:00:00+00,4.5569299,-74.1104379
-74.1155752,4.59233910015087,155,"Carrera 30 con Calle 30 sur, sentido s→n",Choque con lesionado,Motocicleta (2) - Motociclista lesionado (1),Con lesionados,2025/05/01 00:00:00+00,4.5923391,-74.1155752
-74.1641145999999,4.62379330015188,156,"Calle 42A sur con Carrera 80F, sentido or→occ",Choque con lesionado,Automóvil particular (1) - Taxi (1) - Pasajero lesionado (1),Con lesionados,2025/05/01 00:00:00+00,4.6237933,-74.1641146
-74.1113531999999,4.68013090015372,157,"Carrera 80 con Calle 57 sur, sentido n→s",Autolesionado,Motociclista lesionado (1) - Acompañante lesionado (1),Con lesionados,2025/05/01 00:00:00+00,4.6801309,-74.1113532
-74.1030873,4.61155310015147,158,Calle 3 con Carrera 36,Choque con lesionado,Automóvil particular (1) - Motociclista lesionado (1),Con lesionados,2025/05/01 00:00:00+00,4.6115531,-74.1030873
-74.1041451999999,4.56433980014993,159,Calle 37 sur con Carrera 9,Choque simple,Automóvil particular (2),Sin lesionados,2025/05/01 00:00:00+00,4.5643398,-74.1041452
-74.0866963999999,4.52987050014884,160,Transversal 15 este con Calle 61A sur,Choque con lesionado,Motociclista lesionado (2),Con lesionados,2025/05/01 00:00:00+00,4.5298705,-74.0866964
-74.0358255,4.72406430015516,161,Calle 145 con Carrera 12,Choque simple,Automóvil particular (2),Sin lesionados,2025/05/01 00:00:00+00,4.7240643,-74.0358255
-74.0606324999999,4.64624220015264,162,Calle 61 con Av Carrera 7,Choque simple,Taxi (1) - Motocicleta (1),Sin lesionados,2025/05/01 00:00:00+00,4.6462422,-74.0606325
-74.1827612,4.60164720015116,163,"Carrera 78B con Calle 65A sur, sentido n→s",Choque simple,Automóvil particular (1) - Motocicleta (1),Sin lesionados,2025/05/01 00:00:00+00,4.6016472,-74.1827612
-74.1158273,4.66135580015307,164,"Av El Dorado (Calle 26) con Av Boyacá, sentido occ→or",Choque con lesionado,Automóvil particular (1) - Motociclista lesionado (1),Con lesionados,2025/05/01 00:00:00+00,4.6613558,-74.1158273
-74.0911343,4.62519760015192,165,Calle 20 con Carrera 36,Choque simple,Automóvil particular (2),Sin lesionados,2025/05/01 00:00:00+00,4.6251976,-74.0911343
-74.113528,4.58001270015046,166,"Carrera 21B con Calle 31C sur, sentido s→n",Atropello,Automóvil particular (1) - Peatón lesionado (1),Con lesionados,2025/05/01 00:00:00+00,4.5800127,-74.113528
-74.1605041999999,4.59138220015083,167,"Carrera 70 con Calle 61 sur, sentido n→s",Choque con lesionado,Motocicleta (2) - Motociclista lesionado (1),Con lesionados,2025/05/01 00:00:00+00,4.5913822,-74.1605042
-74.0720919999999,4.71098860015473,168,Calle 46 sur con Carrera 20,Choque con lesionado,Automóvil particular (1) - Motociclista lesionado (1),Con lesionados,2025/05/01 00:00:00+00,4.7109886,-74.072092
-74.1161486999999,4.53926440014911,169,Calle 56A sur con Carrera 3A,Choque simple,Vehículo de servicio oficial (1) - Automóvil particular (1),Sin lesionados,2025/05/01 00:00:00+00,4.5392644,-74.1161487
-74.1767439,4.6125555001515,170,"Carrera 80 con Calle 57B sur, sentido s→n",Autolesionado,Motociclista lesionado (1) - Acompañante lesionado (1),Con lesionados,2025/05/01 00:00:00+00,4.6125555,-74.1767439
-74.1451096,4.59865850015107,171,Av Boyacá con Calle 44A sur,Atropello,Motociclista lesionado (1) - Peatón lesionado (1),Con lesionados,2025/05/01 00:00:00+00,4.5986585,-74.1451096
-74.0653115,4.74256590015574,172,Av Boyacá con Calle 153,Choque con lesionado,Ambulancia (1) - Motociclista lesionado (1),Con lesionados,2025/05/01 00:00:00+00,4.7425659,-74.0653115
-74.1038637,4.72911900015529,173,Carrera 118 con Calle 128A,Atropello,Automóvil particular (1) - Peatón lesionado (1),Con lesionados,2025/05/01 00:00:00+00,4.729119,-74.1038637
-74.0752087,4.69107070015409,174,Carrera 69 con Calle 98A,Choque simple,Automóvil particular (2),Sin lesionados,2025/05/01 00:00:00+00,4.6910707,-74.0752087
-74.1754066999999,4.59657400015097,175,"Autopista Sur con Carrera 75, sentido or→occ",Choque simple,,Sin lesionados,2025/05/01 00:00:00+00,4.596574,-74.1754067
-74.179773,4.60953850015141,176,"Carrera 80 con Calle 58K, sentido n→s",Choque simple,Automóvil particular (1) - Motocicleta (1),Sin lesionados,2025/05/01 00:00:00+00,4.6095385,-74.179773
-74.0784538,4.67588650015357,177,Calle 75B con Carrera 61,Choque con lesionado,Automóvil particular (1) - Motociclista lesionado (1),Con lesionados,2025/05/01 00:00:00+00,4.6758865,-74.0784538
-74.1001764,4.68035670015373,178,Av Calle 80 con Av Boyacá,Choque con lesionado,Automóvil particular (2) - Conductor lesionado (1),Con lesionados,2025/05/01 00:00:00+00,4.6803567,-74.1001764
-74.0606554999999,4.63213660015212,179,"Av Circunvalar con Calle 40, sentido s→n",Autolesionado,Motociclista lesionado (1),Con lesionados,2025/05/01 00:00:00+00,4.6321366,-74.0606555
-74.0575772,4.63488790015221,180,"Carrera 19C con Calle 49B, sentido or→occ",Autolesionado,Motociclista lesionado (1),Con lesionados,2025/05/01 00:00:00+00,4.6348879,-74.0575772
-74.086941,4.73900640015563,181,Calle 145 con Carrera 94A,Caida de ocupante,Tractocamión (1) - Pasajero lesionado (3),Con lesionados,2025/05/01 00:00:00+00,4.7390064,-74.086941
-74.019762,4.73646030015553,182,Diagonal 163 con Carrera 2,Choque simple,Camión (1) - Camioneta (1),Sin lesionados,2025/05/01 00:00:00+00,4.7364603,-74.019762
-74.0943473999999,4.68844820015397,183,"Av Boyacá con Calle 73 sur, sentido n→s",Autolesionado,Motociclista lesionado (1),Con lesionados,2025/05/01 00:00:00+00,4.6884482,-74.0943474
-74.0466494999999,4.75350600015612,184,"Calle 170 con Autopista Norte, sentido or→occ",Choque simple,Motocicleta (2),Sin lesionados,2025/05/01 00:00:00+00,4.753506,-74.0466495
-74.1440393,4.67328600015352,185,Carrera 99 con Calle 18,Choque simple,Automóvil particular (2),Sin lesionados,2025/05/01 00:00:00+00,4.673286,-74.1440393
-74.1483901,4.55010230014948,186,"Carrera 18K con Calle 69B, sentido n→s",Choque simple,Automóvil particular (2),Sin lesionados,2025/05/01 00:00:00+00,4.5501023,-74.1483901
-74.113528,4.58001270015046,187,"Carrera 21B con Calle 31C sur, sentido s→n",Atropello,Automóvil particular (1) - Peatón lesionado (1),Con lesionados,2025/05/01 00:00:00+00,4.5800127,-74.113528
-74.1790162,4.62424060015191,188,Av Ciudad de Cali con Calle 53 sur,Choque simple,Automóvil particular (2),Sin lesionados,2025/05/01 00:00:00+00,4.6242406,-74.1790162
-74.1368179,4.61107190015149,189,"Carrera 69 con Calle 35 sur, sentido occ→or",Choque simple,Taxi (1) - Motocicleta (1),Sin lesionados,2025/05/01 00:00:00+00,4.6110719,-74.1368179
-74.1011025999999,4.68334900015378,190,Carrera 74 con Calle 67,Choque simple,Automóvil particular (1) - Motocicleta (1),Sin lesionados,2025/05/01 00:00:00+00,4.683349,-74.1011026
-74.1507658,4.61405130015155,191,"Calle 40 sur con Carrera 73, sentido n→s",Choque simple,Automóvil particular (2),Sin lesionados,2025/05/01 00:00:00+00,4.6140513,-74.1507658
-74.0720919999999,4.71098860015473,192,"Autopista Sur con Carrera 62, sentido n→s",Varado,Bus / buseta (1),Sin lesionados,2025/05/01 00:00:00+00,4.7109886,-74.072092
-74.019762,4.73646030015553,193,Diagonal 163 con Carrera 2,Choque simple,Camión (1) - Automóvil particular (1),Sin lesionados,2025/05/01 00:00:00+00,4.7364603,-74.019762
-74.0481920999999,4.74283000015574,194,"Autopista Norte con Calle 153, sentido n→s",Choque con lesionado,Automóvil particular (1) - Ciclista lesionado (1),Con lesionados,2025/05/01 00:00:00+00,4.74283,-74.0481921
-74.1385724,4.59056350015078,195,"Diagonal 50 sur con Carrera 53, sentido or→occ",Choque simple,Automóvil particular (1) - Motocicleta (1),Sin lesionados,2025/05/01 00:00:00+00,4.5905635,-74.1385724
-74.1664776,4.61552500015161,196,"Carrera 78M con Calle 38 sur, sentido s→n",Choque simple,Automóvil particular (2),Sin lesionados,2025/05/01 00:00:00+00,4.615525,-74.1664776
-74.0658119,4.76061460015633,197,"Av Boyacá con Carrera 170, sentido s→n",Choque con lesionado,Automóvil particular (1) - Motociclista lesionado (1),Con lesionados,2025/05/01 00:00:00+00,4.7606146,-74.0658119
-74.1503855,4.5754922001503,198,Carrera 44 con Calle 58C sur,Choque con lesionado,Motocicleta (2) - Motociclista lesionado (1),Con lesionados,2025/05/01 00:00:00+00,4.5754922,-74.1503855
-74.1035373,4.73649770015552,199,"Calle 131B con Carrera 109B, sentido s→n",Choque con lesionado,Automóvil particular (1) - Ciclista lesionado (1),Con lesionados,2025/05/01 00:00:00+00,4.7364977,-74.1035373
-74.0720919999999,4.71098860015473,200,"Av Carrera 68 con Av Calle 80, sentido n→s",Autolesionado,Motociclista lesionado (1) - Acompañante lesionado (1),Con lesionados,2025/05/01 00:00:00+00,4.7109886,-74.072092
-74.0474677,4.6835654001538,201,Carrera 14 con Calle 91A sur,Choque simple,Taxi (1) - Motocicleta (1),Sin lesionados,2025/05/01 00:00:00+00,4.6835654,-74.0474677
-74.1001764,4.68035670015373,202,Av Boyacá con Calle 81,Choque con lesionado,Automóvil particular (1) - Motociclista lesionado (1),Con lesionados,2025/05/01 00:00:00+00,4.6803567,-74.1001764
-74.0932238999999,4.60269740015121,203,Carrera 24 con Calle 6,Falla semafórica,Intersección semafórica (1),Sin lesionados,2025/05/01 00:00:00+00,4.6026974,-74.0932239
-74.109178,4.62910180015207,204,"Av Carrera 68 con Av Centenario (Calle 13), sentido n→s",Choque simple,Motocicleta (1) - Bicicleta (1),Sin lesionados,2025/05/01 00:00:00+00,4.6291018,-74.109178
-74.0663284,4.73601770015553,205,"Av Boyacá con Av Suba, sentido s→n",Choque simple,,Sin lesionados,2025/05/01 00:00:00+00,4.7360177,-74.0663284
-74.0896913,4.59952230015109,206,Av Comuneros con Carrera 26,Choque simple,Automóvil particular (1) - Motocicleta (1),Sin lesionados,2025/05/01 00:00:00+00,4.5995223,-74.0896913
-74.0689513,4.72514620015517,207,Calle 134 con Carrera 59,Choque con lesionado,Camioneta (1) - Motociclista lesionado (1),Con lesionados,2025/05/01 00:00:00+00,4.7251462,-74.0689513
-74.1918694,4.63923960015239,208,Carrera 98C con Calle 55 sur,Atropello,Motocicleta (1) - Peatón lesionado (1),Con lesionados,2025/05/01 00:00:00+00,4.6392396,-74.1918694
-74.1424091,4.67823790015366,209,"Carrera 103A con Calle 22, sentido s→n",Choque con lesionado,Automóvil particular (1) - Ciclista lesionado (1),Con lesionados,2025/05/01 00:00:00+00,4.6782379,-74.1424091
-74.0951606,4.57059870015016,210,Calle 26 sur con Carrera 71G,Choque simple,Motocicleta (2),Sin lesionados,2025/05/01 00:00:00+00,4.5705987,-74.0951606
-74.1424782999999,4.61912540015171,211,Av Primero de Mayo con Calle 72N,Choque simple,Motocicleta (2),Sin lesionados,2025/05/01 00:00:00+00,4.6191254,-74.1424783
-74.1415109,4.61231560015151,212,"Av Boyacá con Calle 37C sur, sentido n→s",Choque con lesionado,Bus SITP (1) - Motociclista lesionado (1),Con lesionados,2025/05/01 00:00:00+00,4.6123156,-74.1415109
-74.0347705999999,4.68897930015399,213,"Av Carrera 7 con Calle 167C, sentido s→n",Choque simple,,Sin lesionados,2025/05/01 00:00:00+00,4.6889793,-74.0347706
-74.2020977999999,4.62100620015181,214,Calle 74B sur con Carrera 88,Choque con lesionado,Motocicleta (2) - Conductor lesionado (1),Con lesionados,2025/05/01 00:00:00+00,4.6210062,-74.2020978
-74.1578957,4.59606240015098,215,"Autopista Sur con Carrera 67, sentido occ→or",Varado,Bus / buseta (1),Sin lesionados,2025/05/01 00:00:00+00,4.5960624,-74.1578957
-74.1626353,4.61508190015161,216,Av Ciudad de Villavicencio con Av Primero de Mayo,Choque simple,Automóvil particular (1) - Motocicleta (1),Sin lesionados,2025/05/01 00:00:00+00,4.6150819,-74.1626353
-74.1538328999999,4.64273400015252,217,"Av Ciudad de Cali con Calle 6C, sentido s→n",Choque simple,Bus SITP (1) - Automóvil particular (1),Sin lesionados,2025/05/01 00:00:00+00,4.642734,-74.1538329
-74.0428137,4.74630370015587,218,"Calle 166 con Av Carrera 7, sentido s→n",Choque con lesionado,Motocicleta (2) - Conductor lesionado (1),Con lesionados,2025/05/01 00:00:00+00,4.7463037,-74.0428137
-74.1288994,4.56595540015001,219,Carrera 17A con Calle 53 sur,Autolesionado,Motociclista lesionado (1),Con lesionados,2025/05/01 00:00:00+00,4.5659554,-74.1288994
-74.1597500999999,4.57450900015026,220,Diagonal 69C sur con Carrera 48A,Choque con objeto fijo,Pared / muro (1) - Motociclista lesionado (1),Con lesionados,2025/05/01 00:00:00+00,4.574509,-74.1597501
-74.0906517,4.56407730014995,221,Diagonal 28 bis sur con Carrera 1,Atropello,Motocicleta (1) - Peatón lesionado (1),,2025/05/01 00:00:00+00,4.5640773,-74.0906517
-74.0892059999999,4.63396170015221,222,Av El Dorado (Calle 26) con Carrera 40,Choque con lesionado,Automóvil particular (1) - Motociclista lesionado (1),Con lesionados,2025/05/01 00:00:00+00,4.6339617,-74.089206
-74.0720919999999,4.71098860015473,223,"Av Ciudad de Cali con Calle 8C, sentido s→n",Varado,Automóvil particular (1),Sin lesionados,2025/05/01 00:00:00+00,4.7109886,-74.072092
-74.1211276,4.7142117001548,224,Carrera 110 con Calle 77,Choque con lesionado,Automóvil particular (2) - Conductor lesionado (2),Con lesionados,2025/05/01 00:00:00+00,4.7142117,-74.1211276
-74.1754066999999,4.59657400015097,225,"Autopista Sur con Carrera 75, sentido occ→or",Choque simple,,Sin lesionados,2025/05/01 00:00:00+00,4.596574,-74.1754067
-74.0330913,4.69961760015437,226,"Carrera 9 con Calle 123, sentido s→n",Choque simple,Automóvil particular (2),Sin lesionados,2025/05/01 00:00:00+00,4.6996176,-74.0330913
-74.0862519,4.58307260015054,227,"Carrera 8 con Calle 7 sur, sentido n→s",Choque simple,Taxi (1) - Motocicleta (1),Sin lesionados,2025/05/01 00:00:00+00,4.5830726,-74.0862519
-74.0879101,4.64404990015252,228,"Carrera 50 con Calle 44D, sentido n→s",Autolesionado,Motociclista lesionado (1),Con lesionados,2025/05/01 00:00:00+00,4.6440499,-74.0879101
-74.0965035999999,4.5571619001497,229,"Calle 37 sur con Carrera 1A este, sentido or→occ",Choque con lesionado,Motocicleta (2) - Conductor lesionado (1),Con lesionados,2025/05/01 00:00:00+00,4.5571619,-74.0965036
-74.1223836999999,4.58338660015055,230,"Diagonal 40 sur con Carrera 34, sentido s→n",Choque con lesionado,Automóvil particular (1) - Motociclista lesionado (1),Con lesionados,2025/05/01 00:00:00+00,4.5833866,-74.1223837
-74.0964289999999,4.74093900015567,231,"Calle 139 con Carrera 103C bis, sentido s→n",Choque simple,Bicicleta (2),Sin lesionados,2025/05/01 00:00:00+00,4.740939,-74.096429
-74.0644808,4.70888880015467,232,"Calle 127 con Carrera 55, sentido occ→or",Autolesionado,Motociclista lesionado (1),Con lesionados,2025/05/01 00:00:00+00,4.7088888,-74.0644808
-74.1382743,4.62714550015198,233,Av Boyacá con Calle 4 sur,Choque simple,Automóvil particular (2),Sin lesionados,2025/05/01 00:00:00+00,4.6271455,-74.1382743
-74.1134994,4.51510660014831,234,Calle 75 sur con Carrera 10,Choque simple,Camión (1) - Automóvil particular (1),Sin lesionados,2025/05/01 00:00:00+00,4.5151066,-74.1134994
-74.1229011999999,4.59150470015081,235,Carrera 34B con Calle 38A sur,Choque simple,Automóvil particular (1) - Motocicleta (1),Sin lesionados,2025/05/01 00:00:00+00,4.5915047,-74.1229012
-74.1537954999999,4.66044850015305,236,Av Centenario (Calle 13) con Carrera 98,Choque con lesionado,Automóvil particular (1) - Motociclista lesionado (1) - Acompañante lesionado (1),Con lesionados,2025/05/01 00:00:00+00,4.6604485,-74.1537955
-74.0450336,4.75859440015627,237,"Autopista Norte con Calle 127, sentido n→s",Choque simple,Automóvil particular (2),Sin lesionados,2025/05/01 00:00:00+00,4.7585944,-74.0450336
-74.1042403,4.69594050015425,238,Carrera 85 con Calle 83A,Choque simple,Taxi (1) - Automóvil particular (1),Sin lesionados,2025/05/01 00:00:00+00,4.6959405,-74.1042403
-74.1944812,4.60238880015116,239,"Transversal 78A con Calle 71 sur, sentido n→s",Choque con lesionado,Automóvil particular (1) - Taxi (1) - Pasajero lesionado (1),Con lesionados,2025/05/01 00:00:00+00,4.6023888,-74.1944812
-74.1126963999999,4.6561232001529,240,"Av La Esperanza con Calle 75, sentido or→occ",Choque simple,Automóvil particular (2),Sin lesionados,2025/05/01 00:00:00+00,4.6561232,-74.1126964
-74.0331467999999,4.69368390015416,241,"Av Pepe Sierra con Av Carrera 7, sentido s→n",Choque con lesionado,Taxi (1) - Ciclista lesionado (1),Con lesionados,2025/05/01 00:00:00+00,4.6936839,-74.0331468
-74.0778692,4.59022940015079,242,"Av Carrera 10 con Av Comuneros, sentido n→s",Choque con lesionado,Automóvil particular (1) - Motociclista lesionado (1),Con lesionados,2025/05/01 00:00:00+00,4.5902294,-74.0778692
-74.1181372999999,4.62879130015204,243,Av Américas con Carrera 69C,Autolesionado,Motociclista lesionado (1),Con lesionados,2025/05/01 00:00:00+00,4.6287913,-74.1181373
-74.1467661999999,4.56315860014992,244,Carrera 20B con Calle 65 sur,Atropello,Motociclista lesionado (1) - Peatón lesionado (1),Con lesionados,2025/05/01 00:00:00+00,4.5631586,-74.1467662
-74.0968038999999,4.56822020015006,245,"Calle 30A sur con Carrera 7 este, sentido occ→or",Autolesionado,Motociclista lesionado (1),Con lesionados,2025/05/01 00:00:00+00,4.5682202,-74.0968039
-74.0650798999999,4.64022260015244,246,Calle 53 con Carrera 13,Choque simple,Automóvil particular (2),Sin lesionados,2025/05/01 00:00:00+00,4.6402226,-74.0650799
-74.0926580999999,4.64530630015261,247,Calle 44 con Carrera 54,Atropello,Automóvil particular (1) - Peatón lesionado (1),Con lesionados,2025/05/01 00:00:00+00,4.6453063,-74.0926581
-74.0838287,4.53982890014913,248,"Diagonal 46 sur con Carrera 13B, sentido occ→or",Choque simple,Motocicleta (2),Sin lesionados,2025/05/01 00:00:00+00,4.5398289,-74.0838287
-74.0922528999999,4.57325260015023,249,Av Primero de Mayo con Carrera 7,Choque simple,Automóvil particular (1) - Taxi (1),Sin lesionados,2025/05/01 00:00:00+00,4.5732526,-74.0922529
-74.0768424,4.61625210015164,250,NQS con Calle 24,Choque con objeto fijo,Poste (1) - Motociclista lesionado (1),Con lesionados,2025/05/01 00:00:00+00,4.6162521,-74.0768424
-74.1126963999999,4.6561232001529,251,"Av Boyacá con Av La Esperanza, sentido n→s",Choque simple,Automóvil particular (2),Sin lesionados,2025/05/01 00:00:00+00,4.6561232,-74.1126964
-74.0202975999999,4.67000750015339,252,"Av Carrera 7 con Calle 100, sentido s→n",Choque simple,Automóvil particular (1) - Motocicleta (1),Sin lesionados,2025/05/01 00:00:00+00,4.6700075,-74.0202976
-74.0529564,4.65881650015302,253,"Av Carrera 7 con Calle 76, sentido s→n",Choque simple,Automóvil particular (2),Sin lesionados,2025/05/01 00:00:00+00,4.6588165,-74.0529564
-74.0470428,4.66197690015315,254,"Av Circunvalar con Calle 83, sentido s→n",Choque con lesionado,Camioneta (1) - Motociclista lesionado (1),Con lesionados,2025/05/01 00:00:00+00,4.6619769,-74.0470428
-74.0727510999999,4.68525550015386,255,Carrera 67A con Calle 94,Choque con lesionado,Motocicleta (1) - Ciclista lesionado (1),Con lesionados,2025/05/01 00:00:00+00,4.6852555,-74.0727511
-74.0792822,4.59829540015104,256,Av Carrera 10 con Calle 9,Choque simple,Motocicleta (2),Sin lesionados,2025/05/01 00:00:00+00,4.5982954,-74.0792822
-74.0878435,4.68511450015388,257,"Calle 74B con Carrera 69K, sentido or→occ",Atropello,Camión (1) - Peatón lesionado (1),Con lesionados,2025/05/01 00:00:00+00,4.6851145,-74.0878435
-74.1607304999999,4.58734030015069,258,Av Ciudad de Villavicencio con Calle 67A,Autolesionado,Motociclista lesionado (1),Con lesionados,2025/05/01 00:00:00+00,4.5873403,-74.1607305
-74.0720919999999,4.71098860015473,259,Calle 43 sur con Carrera 77,Choque con objeto fijo,Separador (1) - Automóvil particular (1),Sin lesionados,2025/05/01 00:00:00+00,4.7109886,-74.072092
-74.0833042,4.66896160015335,260,Calle 67A bis con Carrera 60,Choque con objeto fijo,Motocicleta (1) - Vivienda (1),Sin lesionados,2025/05/01 00:00:00+00,4.6689616,-74.0833042
-74.1623294,4.68489750015385,261,Carrera 123 con Calle 13B,Choque con lesionado,Motociclista lesionado (2),Con lesionados,2025/05/01 00:00:00+00,4.6848975,-74.1623294
-74.0792823,4.63918680015239,262,Calle 14 con NQS,Autolesionado,Motociclista lesionado (2),Con lesionados,2025/05/01 00:00:00+00,4.6391868,-74.0792823
-74.1026131,4.75013820015598,263,Av Suba con Carrera 114,Choque con lesionado,Bus SITP (1) - Motociclista lesionado (1),Con lesionados,2025/05/01 00:00:00+00,4.7501382,-74.1026131
-74.1042055,4.58312870015054,264,Av Primero de Mayo con Carrera 19,Choque simple,Automóvil particular (2),Sin lesionados,2025/05/01 00:00:00+00,4.5831287,-74.1042055
-74.115176,4.57111930015014,265,Carrera 14B con Calle 36,Choque simple,Automóvil particular (1) - Motocicleta (1),Sin lesionados,2025/05/01 00:00:00+00,4.5711193,-74.115176
-74.1124789,4.51177840014821,266,Carrera 9A con Calle 76B,Choque simple,Taxi (1) - Automóvil particular (1),Sin lesionados,2025/05/01 00:00:00+00,4.5117784,-74.1124789
-74.1767439,4.6125555001515,267,Av Agoberto Mejía con Calle 57B sur,Choque simple,Camioneta (1) - Motocicleta (1),Sin lesionados,2025/05/01 00:00:00+00,4.6125555,-74.1767439
-74.1090298999999,4.58917300015078,268,Av Primero de Mayo con Carrera 27,Autolesionado,Motociclista lesionado (1),Con lesionados,2025/05/01 00:00:00+00,4.589173,-74.1090299
-74.0705055999999,4.63809380015233,269,Calle 50 con Carrera 18,Choque con lesionado,Automóvil particular (1) - Motociclista lesionado (1),Con lesionados,2025/05/01 00:00:00+00,4.6380938,-74.0705056
-74.1375785,4.65757750015299,270,Av Ciudad de Cali con Calle 15A,Autolesionado,Motociclista lesionado (1),Con lesionados,2025/05/01 00:00:00+00,4.6575775,-74.1375785
-74.1008484,4.67071460015341,271,Av José Celestino Mutis con Carrera 110A,Autolesionado,Motociclista lesionado (1),Con lesionados,2025/05/01 00:00:00+00,4.6707146,-74.1008484
-74.0305496999999,4.75707050015622,272,"Calle 76A sur con Carrera 8D, sentido n→s",Choque simple,Taxi (1) - Automóvil particular (1),Sin lesionados,2025/05/01 00:00:00+00,4.7570705,-74.0305497
-74.1670309,4.63977240015238,273,Av Guayacanes con Calle 38 sur,Choque simple,Automóvil particular (1) - Motocicleta (1),Sin lesionados,2025/05/01 00:00:00+00,4.6397724,-74.1670309
-74.1351657,4.66027400015309,274,Av Ciudad de Cali con Av Chile (Calle 72),Choque con lesionado,Automóvil particular (1) - Motociclista lesionado (1),Con lesionados,2025/05/01 00:00:00+00,4.660274,-74.1351657
-74.1173163,4.62288480015186,275,Carrera 56A con Calle 4D,Choque con lesionado,Automóvil particular (1) - Motociclista lesionado (1),Con lesionados,2025/05/01 00:00:00+00,4.6228848,-74.1173163
-74.0903876,4.63433500015219,276,NQS con Av El Dorado (Calle 26),Autolesionado,Ciclista lesionado (1),Con lesionados,2025/05/01 00:00:00+00,4.634335,-74.0903876
-74.0690609,4.62841800015206,277,NQS con Calle 40A,Atropello,Motocicleta (1) - Peatón lesionado (1),Con lesionados,2025/05/01 00:00:00+00,4.628418,-74.0690609
-74.1087542,4.69052550015404,278,Av Ciudad de Cali con Calle 68,Choque simple,Camioneta (1) - Motocicleta (1),Sin lesionados,2025/05/01 00:00:00+00,4.6905255,-74.1087542
-74.1108976,4.55715170014968,279,Calle 48J sur con Carrera 5H,Choque con lesionado,Taxi (1) - Automóvil particular (1) - Conductor lesionado (1),Con lesionados,2025/05/01 00:00:00+00,4.5571517,-74.1108976
-74.1004806,4.55952470014979,280,Calle 37D sur con Carrera 3B este,Choque con lesionado,Motociclista lesionado (2),Con lesionados,2025/05/01 00:00:00+00,4.5595247,-74.1004806
-74.0917014,4.57987040015047,281,Calle 14 con Carrera 107,Choque con lesionado,Camioneta (2) - Acompañante lesionado (1),Con lesionados,2025/05/01 00:00:00+00,4.5798704,-74.0917014
-74.1850841999999,4.61890170015171,282,Av Ciudad de Cali con Calle 58C bis sur,Autolesionado,Motociclista lesionado (1),Con lesionados,2025/05/01 00:00:00+00,4.6189017,-74.1850842
-74.1686918,4.61910680015173,283,Av Agoberto Mejía con Av Bosa,Atropello,Automóvil particular (1) - Peatón lesionado (1),Con lesionados,2025/05/01 00:00:00+00,4.6191068,-74.1686918
-74.1544016999999,4.57193440015017,284,Carrera 43A con Calle 68C sur,Choque con lesionado,Automóvil particular (1) - Motociclista lesionado (1),Con lesionados,2025/05/01 00:00:00+00,4.5719344,-74.1544017
-74.0788166999999,4.60529940015127,285,"Av Boyacá con Av Caracas, sentido s→n",Autolesionado,Motociclista lesionado (1),Con lesionados,2025/05/01 00:00:00+00,4.6052994,-74.0788167
-74.1027763,4.67621440015358,286,"Av Boyacá con Calle 64, sentido s→n",Choque simple,Automóvil particular (2),Sin lesionados,2025/05/01 00:00:00+00,4.6762144,-74.1027763
-74.1008484,4.67071460015341,287,"Av Carrera 68 con Av José Celestino Mutis, sentido n→s",Autolesionado,Motociclista lesionado (1),Con lesionados,2025/05/01 00:00:00+00,4.6707146,-74.1008484
-74.1036296,4.75064200015599,288,Carrera 114D con Av Suba,Choque con lesionado,Bus SITP (1) - Motociclista lesionado (1),,2025/05/01 00:00:00+00,4.750642,-74.1036296
-74.1126366,4.60363370015122,289,Calle 8 sur con Carrera 38,Choque simple,Camioneta (1) - Motocicleta (1),Sin lesionados,2025/05/01 00:00:00+00,4.6036337,-74.1126366
-74.1590121,4.61967130015175,290,Calle 41D con Carrera 78N,Choque con lesionado,Motocicleta (2) - Conductor lesionado (1) - Acompañante lesionado (1),Con lesionados,2025/05/01 00:00:00+00,4.6196713,-74.1590121
-74.1351657,4.66027400015309,291,"Av Ciudad de Cali con Calle 44 sur, sentido n→s",Autolesionado,Motociclista lesionado (1),Con lesionados,2025/05/01 00:00:00+00,4.660274,-74.1351657
-74.0657884,4.65226970015279,292,Calle 64 con Carrera 17,Choque simple,Motocicleta (2),Sin lesionados,2025/05/01 00:00:00+00,4.6522697,-74.0657884
-74.1069206,4.70589560015459,293,Carrera 93 con Av Calle 80,Choque con lesionado,Motocicleta (2) - Conductor lesionado (1),Con lesionados,2025/05/02 00:00:00+00,4.7058956,-74.1069206
-74.178591,4.63164720015212,294,Calle 49 sur con Carrera 88C,Choque simple,Automóvil particular (1) - Vehículo de servicio oficial (1),Sin lesionados,2025/05/02 00:00:00+00,4.6316472,-74.178591
-74.1211053,4.72134790015507,295,Av Calle 80 con Carrera 114,Choque simple,Automóvil particular (2),Sin lesionados,2025/05/02 00:00:00+00,4.7213479,-74.1211053
-74.1130755999999,4.58517350015063,296,Calle 29A sur con Carrera 25,Autolesionado,Motocicleta (1) - Acompañante lesionado (1),Con lesionados,2025/05/02 00:00:00+00,4.5851735,-74.1130756
-74.1465848,4.56851300015008,297,Calle 62 sur con Carrera 22I,Choque con lesionado,Automóvil particular (1) - Motociclista lesionado (1),Con lesionados,2025/05/02 00:00:00+00,4.568513,-74.1465848
-74.1036212,4.74021890015568,298,Carrera 111 con Calle 135,Choque simple,Automóvil particular (2),Sin lesionados,2025/05/02 00:00:00+00,4.7402189,-74.1036212
-74.1143862,4.50958560014815,299,Av Caracas con Calle 81 sur,Choque simple,Automóvil particular (2),Sin lesionados,2025/05/02 00:00:00+00,4.5095856,-74.1143862
-74.109178,4.62910180015207,300,Av Centenario (Calle 13) con Carrera 82,Autolesionado,Motociclista lesionado (1),Con lesionados,2025/05/02 00:00:00+00,4.6291018,-74.109178
-74.1952578999999,4.62110400015181,301,Carrera 87C con Calle 69B sur,Manifestación,Taxi,Sin lesionados,2025/05/02 00:00:00+00,4.621104,-74.1952579
-74.0689811,4.65477200015287,302,Transversal 112B bis con Calle 65,"Sustancia química en vía (aceite, ACPM, otros)",ACPM,Sin lesionados,2025/05/02 00:00:00+00,4.654772,-74.0689811
-74.0938785,4.56667600015,303,Carrera 3 con Calle 28 sur,Choque con lesionado,Taxi (1) - Motociclista lesionado (1),Con lesionados,2025/05/02 00:00:00+00,4.566676,-74.0938785
-74.1126963999999,4.6561232001529,304,Carrera 107 bis con Av La Esperanza,Choque simple,Automóvil particular (1) - Motocicleta (1),Sin lesionados,2025/05/02 00:00:00+00,4.6561232,-74.1126964
-74.109178,4.62910180015207,305,"Av Boyacá con Av Centenario (Calle 13), sentido s→n",Choque simple,Camioneta (1) - Automóvil particular (1),Sin lesionados,2025/05/02 00:00:00+00,4.6291018,-74.109178
-74.109178,4.62910180015207,306,Av Centenario (Calle 13) con Carrera 120,Choque con lesionado,Automóvil particular (2) - Conductor lesionado (1),Con lesionados,2025/05/02 00:00:00+00,4.6291018,-74.109178
-74.1001764,4.68035670015373,307,Av Boyacá con Transversal 3J,Autolesionado,Motociclista lesionado (1) - Acompañante lesionado (1),Con lesionados,2025/05/02 00:00:00+00,4.6803567,-74.1001764
-74.080114,4.57041810015013,308,Carrera 10A este con Calle 17B sur,Autolesionado,Motociclista lesionado (1),Con lesionados,2025/05/02 00:00:00+00,4.5704181,-74.080114
-74.1615088,4.64438410015253,309,"Av Guayacanes con Av Ciudad de Cali, sentido occ→or",Choque simple,Bus / buseta (1) - Automóvil particular (1),Sin lesionados,2025/05/02 00:00:00+00,4.6443841,-74.1615088
-74.1653241,4.64121640015247,310,Av Guayacanes con Calle 34A sur,Falla semafórica,Intersección semafórica (1),Sin lesionados,2025/05/02 00:00:00+00,4.6412164,-74.1653241
-74.0894567,4.72370820015511,311,Carrera 91 con Calle 129,Choque con lesionado,Automóvil particular (1) - Motociclista lesionado (1),Con lesionados,2025/05/02 00:00:00+00,4.7237082,-74.0894567
-74.1114244,4.55742970014973,312,Calle 48J sur con Carrera 5I,Varado,Volqueta (1),Sin lesionados,2025/05/02 00:00:00+00,4.5574297,-74.1114244
-74.0899656999999,4.75359250015608,313,Calle 153 con Carrera 102,Choque simple,Vehículo escolar (1) - Camioneta (1),Sin lesionados,2025/05/02 00:00:00+00,4.7535925,-74.0899657
-74.1139828,4.56028500014978,314,Calle 48D sur con Carrera 9,Choque simple,Automóvil particular (1) - Motocicleta (1),Sin lesionados,2025/05/02 00:00:00+00,4.560285,-74.1139828
-74.1091443999999,4.64624650015264,315,"Av Carrera 68 con Av Américas, sentido s→n",Choque con lesionado,Automóvil particular (1) - Ciclista lesionado (1),Con lesionados,2025/05/02 00:00:00+00,4.6462465,-74.1091444
-74.112496,4.59456820015091,316,"Carrera 30 con Av Primero de Mayo, sentido s→n",Choque con lesionado,Bus SITP (1) - Motociclista lesionado (1),Con lesionados,2025/05/02 00:00:00+00,4.5945682,-74.112496
-74.1029498999999,4.65219300015282,317,Av El Dorado (Calle 26) con Av Ciudad de Cali,Caida de ocupante,Bus articulado / biarticulado (1) - Pasajero lesionado (1),Con lesionados,2025/05/02 00:00:00+00,4.652193,-74.1029499
-74.0900832,4.61642780015165,318,"NQS con Calle 17, sentido s→n",Choque con lesionado,Bus articulado / biarticulado (2) - Motociclista lesionado (1),Con lesionados,2025/05/02 00:00:00+00,4.6164278,-74.0900832
-74.1045958,4.71086050015469,319,Carrera 95 con Calle 83,Choque con lesionado,Motocicleta (1) - Ciclista lesionado (1),Con lesionados,2025/05/02 00:00:00+00,4.7108605,-74.1045958
-74.1091443999999,4.64624650015264,320,"Av Carrera 68 con Av Américas, sentido n→s",Choque con lesionado,Automóvil particular (1) - Motociclista lesionado (1),,2025/05/02 00:00:00+00,4.6462465,-74.1091444
-74.154775,4.54803330014941,321,"Calle 70D sur con Carrera 20, sentido or→occ",Choque simple,Bus SITP (1) - Vehículo escolar (1),Sin lesionados,2025/05/02 00:00:00+00,4.5480333,-74.154775
-74.0834965,4.53956360014915,322,"Carrera 13B este con Calle 46B sur, sentido s→n",Choque con lesionado,Bus SITP (1) - Automóvil particular (1) - Motociclista lesionado (1),Con lesionados,2025/05/02 00:00:00+00,4.5395636,-74.0834965
-74.1181372999999,4.62879130015204,323,"Av Américas con Carrera 69D, sentido occ→or",Varado,Bus SITP (1),Sin lesionados,2025/05/02 00:00:00+00,4.6287913,-74.1181373
-74.0903876,4.63433500015219,324,"NQS con Av El Dorado (Calle 26), sentido s→n",Choque con lesionado,Taxi (1) - Bicicleta (1),Con lesionados,2025/05/02 00:00:00+00,4.634335,-74.0903876
-74.1397383999999,4.57313720015026,325,"Carrera 24 con Calle 56A sur, sentido s→n",Choque con lesionado,Camioneta (1) - Motocicleta (2) - Motociclista lesionado (1),Con lesionados,2025/05/02 00:00:00+00,4.5731372,-74.1397384
-74.0552908,4.65848400015301,326,"Calle 75 sur con Carrera 9, sentido n→s",Choque simple,Taxi (1) - Motocicleta (1),Sin lesionados,2025/05/02 00:00:00+00,4.658484,-74.0552908
-74.1174099999999,4.71952000015499,327,Carrera 111 con Av Chile (Calle 72),Choque simple,Vehículo escolar (1) - Motocicleta (1),Sin lesionados,2025/05/02 00:00:00+00,4.71952,-74.11741
-74.1446771,4.59538640015096,328,"Autopista Sur con Carrera 72, sentido occ→or",Daño en pavimento,Alcantarilla destapada (1),Sin lesionados,2025/05/02 00:00:00+00,4.5953864,-74.1446771
-74.1977117,4.63279420015216,329,Calle 63 sur con Carrera 95,Choque simple,Automóvil particular (1) - Motocicleta (1),Sin lesionados,2025/05/02 00:00:00+00,4.6327942,-74.1977117
-74.1351657,4.66027400015309,330,"Av Centenario (Calle 13) con Av Ciudad de Cali, sentido or→occ",Choque simple,Camión (1) - Camioneta (1),Sin lesionados,2025/05/02 00:00:00+00,4.660274,-74.1351657
-74.1157173,4.63968030015241,331,"Av Carrera 68 con Calle 17, sentido n→s",Choque con lesionado,Motocicleta (2) - Motociclista lesionado (1),Con lesionados,2025/05/02 00:00:00+00,4.6396803,-74.1157173
-74.0691289,4.61516620015158,332,"Av Carrera 7 con Calle 28, sentido s→n",Choque simple,Automóvil particular (2),Sin lesionados,2025/05/02 00:00:00+00,4.6151662,-74.0691289
-74.0720919999999,4.71098860015473,333,"Carrera 8 con Calle 75 sur, sentido s→n",Choque simple,Taxi (1) - Motocicleta (1),Sin lesionados,2025/05/02 00:00:00+00,4.7109886,-74.072092
-74.1336143999999,4.67564980015355,334,Calle 23F con Carrera 101B,Choque simple,Automóvil particular (1) - Bicicleta (1),Sin lesionados,2025/05/02 00:00:00+00,4.6756498,-74.1336144
-74.1291977,4.59371110015091,335,Autopista Sur con Carrera 50A,Choque simple,Camión (1) - Automóvil particular (1),Sin lesionados,2025/05/02 00:00:00+00,4.5937111,-74.1291977
-74.0872072,4.5937454001509,336,Av Caracas con Calle 2,Falla semafórica,Intersección semafórica (1),Sin lesionados,2025/05/02 00:00:00+00,4.5937454,-74.0872072
-74.0545086,4.65805470015298,337,Calle 75 sur con Carrera 8,Choque simple,Taxi (1) - Motocicleta (1),,2025/05/02 00:00:00+00,4.6580547,-74.0545086
-74.1385789999999,4.60578730015128,338,Transversal 68J bis con Calle 38 sur,Choque simple,Automóvil particular (2),Sin lesionados,2025/05/02 00:00:00+00,4.6057873,-74.138579
-74.1052912,4.71532380015483,339,Calle 86A con Carrera 95G bis,Atropello,Motocicleta (1) - Peatón lesionado (1),Con lesionados,2025/05/02 00:00:00+00,4.7153238,-74.1052912
-74.1004298999999,4.65714560015295,340,Av Carrera 68 con Calle 53,Autolesionado,Motociclista lesionado (1),Con lesionados,2025/05/02 00:00:00+00,4.6571456,-74.1004299
-74.1549231,4.64557520015259,341,Carrera 87B con Calle 6D,Autolesionado,Motociclista lesionado (1),Con lesionados,2025/05/02 00:00:00+00,4.6455752,-74.1549231
-74.1395934,4.57304090015021,342,"Av Boyacá con Carrera 24, sentido s→n",Choque con lesionado,Automóvil particular (2) - Conductor lesionado (1),Con lesionados,2025/05/02 00:00:00+00,4.5730409,-74.1395934
-74.1359404,4.63937730015237,343,"Av Boyacá con Calle 9, sentido s→n",Choque con lesionado,Motociclista lesionado (2),Con lesionados,2025/05/02 00:00:00+00,4.6393773,-74.1359404
-74.1686617999999,4.61046710015144,344,"Calle 66A con Carrera 78, sentido or→occ",Choque con lesionado,Camión (1) - Motociclista lesionado (1) - Acompañante lesionado (1),Con lesionados,2025/05/02 00:00:00+00,4.6104671,-74.1686618
-74.1399992999999,4.53746270014907,345,Carrera 17A con Calle 79 sur,Choque simple,Volqueta (1) - Automóvil particular (1),Sin lesionados,2025/05/02 00:00:00+00,4.5374627,-74.1399993
-74.091574,4.57254070015021,346,"Carrera 6 con Av Primero de Mayo, sentido n→s",Choque con lesionado,Motocicleta (1) - Ciclista lesionado (1),Con lesionados,2025/05/02 00:00:00+00,4.5725407,-74.091574
-74.09441,4.58564030015061,347,Calle 11 sur con Av Caracas,Autolesionado,Motociclista lesionado (1),Con lesionados,2025/05/02 00:00:00+00,4.5856403,-74.09441
-74.0655305,4.73974840015565,348,"Av Boyacá con Calle 152B, sentido s→n",Varado,Volqueta (1),Sin lesionados,2025/05/02 00:00:00+00,4.7397484,-74.0655305
-74.1059466999999,4.68696400015393,349,Calle 66A con Carrera 80,Choque con lesionado,Camión (1) - Motociclista lesionado (1),Con lesionados,2025/05/02 00:00:00+00,4.686964,-74.1059467
-74.1197076999999,4.63515580015227,350,"Av Carrera 68 con Calle 12, sentido s→n",Choque simple,Bus SITP (1) - Bus / buseta (1),Sin lesionados,2025/05/02 00:00:00+00,4.6351558,-74.1197077
-74.0577383999999,4.7378033001556,351,"Carrera 55 con Calle 152A, sentido n→s",Varado,Bicitaxi (1),Sin lesionados,2025/05/02 00:00:00+00,4.7378033,-74.0577384
-74.1134264999999,4.68524600015389,352,Av Ciudad de Cali con Calle 63F,Choque con lesionado,Automóvil particular (1) - Motociclista lesionado (1),Con lesionados,2025/05/02 00:00:00+00,4.685246,-74.1134265
-74.1355645,4.61401950015155,353,Av Primero de Mayo con Carrera 69B,Falla semafórica,Intersección semafórica (1),Sin lesionados,2025/05/02 00:00:00+00,4.6140195,-74.1355645
-74.1286904,4.64402790015252,354,Calle 12B con Carrera 71D,Choque con objeto fijo,Automóvil particular (1) - Árbol (1),Sin lesionados,2025/05/02 00:00:00+00,4.6440279,-74.1286904
-74.1588872999999,4.57390250015024,355,"Transversal 48 con Calle 69D sur, sentido s→n",Atropello,Automóvil particular (1) - Peatón lesionado (1),Con lesionados,2025/05/02 00:00:00+00,4.5739025,-74.1588873
-74.0577162,4.68162410015374,356,"Autopista Norte con Calle 94, sentido s→n",Autolesionado,Motociclista lesionado (1),Con lesionados,2025/05/02 00:00:00+00,4.6816241,-74.0577162
-74.0450336,4.75859440015627,357,"Autopista Norte con Calle 79, sentido n→s",Choque simple,Automóvil particular (2),Sin lesionados,2025/05/02 00:00:00+00,4.7585944,-74.0450336
-74.0462375,4.72411050015515,358,Carrera 19 con Calle 142,Aprisionamiento,Bus SITP (1) - Pasajero lesionado (1),Con lesionados,2025/05/02 00:00:00+00,4.7241105,-74.0462375
-74.0976979,4.62666830015199,359,"Av Américas con Carrera 42, sentido or→occ",Choque con lesionado,Camión (1) - Motociclista lesionado (1) - Acompañante lesionado (1),Con lesionados,2025/05/02 00:00:00+00,4.6266683,-74.0976979
-74.1351657,4.66027400015309,360,"Av Ciudad de Cali con Calle 23, sentido s→n",Choque con lesionado,Camión (2) - Motociclista lesionado (1),Con lesionados,2025/05/02 00:00:00+00,4.660274,-74.1351657
-74.1181372999999,4.62879130015204,361,"Av Américas con Carrera 67, sentido or→occ",Varado,Automóvil particular (1),Sin lesionados,2025/05/02 00:00:00+00,4.6287913,-74.1181373
-74.047201,4.71788900015496,362,"Calle 134 con Carrera 19, sentido or→occ",Choque simple,Automóvil particular (1) - Taxi (1),Sin lesionados,2025/05/02 00:00:00+00,4.717889,-74.047201
-74.0988397,4.62767600015202,363,"Carrera 43A con Calle 20B, sentido s→n",Autolesionado,Ciclista lesionado (1),Con lesionados,2025/05/02 00:00:00+00,4.627676,-74.0988397
-74.109413,4.55897040014974,364,Calle 48B sur con Carrera 5F,Atropello,Ambulancia (1) - Peatón lesionado (1),Con lesionados,2025/05/02 00:00:00+00,4.5589704,-74.109413
-74.1241453,4.65151980015281,365,"Av Boyacá con Calle 19, sentido s→n",Choque simple,Automóvil particular (2),Sin lesionados,2025/05/02 00:00:00+00,4.6515198,-74.1241453
-74.0778692,4.59022940015079,366,"NQS con Av Comuneros, sentido n→s",Choque simple,Automóvil particular (2),Sin lesionados,2025/05/02 00:00:00+00,4.5902294,-74.0778692
-74.1335979999999,4.60191020015114,367,"Av Carrera 68 con Calle 39 sur, sentido s→n",Autolesionado,Motociclista lesionado (1),Con lesionados,2025/05/02 00:00:00+00,4.6019102,-74.133598
-74.0879783,4.73019290015531,368,Carrera 87 con Calle 132,"Caída de objetos en vía (árbol, cables, otros)",Árbol (1),Sin lesionados,2025/05/02 00:00:00+00,4.7301929,-74.0879783
-74.0556955,4.72762300015526,369,Carrera 53 con Calle 144,Choque con lesionado,Automóvil particular (1) - Patineta (1) - Conductor lesionado (1),Con lesionados,2025/05/02 00:00:00+00,4.727623,-74.0556955
-74.1351657,4.66027400015309,370,"Av Ciudad de Cali con Calle 34 sur, sentido s→n",Choque con lesionado,Taxi (1) - Motociclista lesionado (1),Con lesionados,2025/05/02 00:00:00+00,4.660274,-74.1351657
-74.1332732,4.60622350015131,371,"Carrera 26G con Calle 35 sur, sentido s→n",Choque simple,Automóvil particular (1) - Motocicleta (1),Sin lesionados,2025/05/02 00:00:00+00,4.6062235,-74.1332732
-74.0904998999999,4.59803280015105,372,Carrera 18C con Calle 4A,Choque simple,Camión (2),Sin lesionados,2025/05/02 00:00:00+00,4.5980328,-74.0904999
-74.057267,4.68859500015396,373,"Autopista Norte con Calle 102, sentido s→n",Choque simple,Automóvil particular (2),Sin lesionados,2025/05/02 00:00:00+00,4.688595,-74.057267
-74.0899780999999,4.60327120015122,374,Carrera 20A con Calle 7B,Choque con objeto fijo,Árbol (1) - Camión (1),Sin lesionados,2025/05/02 00:00:00+00,4.6032712,-74.0899781
-74.0985345,4.58338830015054,375,"Av Caracas con Calle 17, sentido s→n",Autolesionado,Motociclista lesionado (1) - Acompañante lesionado (1),Con lesionados,2025/05/02 00:00:00+00,4.5833883,-74.0985345
-74.112496,4.59456820015091,376,Carrera 30 con Av Primero de Mayo,Choque simple,Volqueta (1) - Automóvil particular (1),Sin lesionados,2025/05/02 00:00:00+00,4.5945682,-74.112496
-74.1615088,4.64438410015253,377,"Calle 38B sur con Av Guayacanes, sentido or→occ",Choque con lesionado,Camioneta (1) - Automóvil particular (1),Con lesionados,2025/05/02 00:00:00+00,4.6443841,-74.1615088
-74.1615088,4.64438410015253,378,"Av Ciudad de Cali con Av Guayacanes, sentido s→n",Choque simple,Camión (1) - Automóvil particular (1),Sin lesionados,2025/05/02 00:00:00+00,4.6443841,-74.1615088
-74.084312,4.58244800015054,379,"Av Carrera 7 con Calle 6 sur, sentido s→n",Choque simple,Camión (1) - Automóvil particular (1),Sin lesionados,2025/05/02 00:00:00+00,4.582448,-74.084312
-74.1351657,4.66027400015309,380,Av Ciudad de Cali con Av Centenario (Calle 13),Choque simple,Tractocamión (1) - Automóvil particular (1),Sin lesionados,2025/05/02 00:00:00+00,4.660274,-74.1351657
-74.1136418999999,4.66439400015323,381,"Av Boyacá con Calle 25B, sentido s→n",Choque simple,Camión (1) - Automóvil particular (1),Sin lesionados,2025/05/02 00:00:00+00,4.664394,-74.1136419
-74.109178,4.62910180015207,382,"Av Boyacá con Av Centenario (Calle 13), sentido s→n",Choque simple,Bus SITP (1) - Automóvil particular (1),Sin lesionados,2025/05/02 00:00:00+00,4.6291018,-74.109178
-74.1684127999999,4.61938570015176,383,"Av Agoberto Mejía con Calle 71A sur, sentido s→n",Atropello,Motocicleta (1) - Peatón lesionado (1),Con lesionados,2025/05/02 00:00:00+00,4.6193857,-74.1684128
-74.1944247,4.64069280015245,384,Carrera 100A con Calle 56F sur,Choque con objeto fijo,Automóvil particular (1) - Vivienda (1),Sin lesionados,2025/05/02 00:00:00+00,4.6406928,-74.1944247
-74.0691887999999,4.63884710015235,385,"NQS con Calle 51, sentido n→s",Choque simple,Automóvil particular (2),Sin lesionados,2025/05/02 00:00:00+00,4.6388471,-74.0691888
-74.1025404,4.5847199001506,386,Av Calle 19 con Carrera 19,Choque simple,Automóvil particular (1) - Motocicleta (1),Sin lesionados,2025/05/02 00:00:00+00,4.5847199,-74.1025404
-74.1001764,4.68035670015373,387,"Av Boyacá con Calle 45, sentido n→s",Choque con lesionado,Automóvil particular (1) - Motociclista lesionado (1),Con lesionados,2025/05/02 00:00:00+00,4.6803567,-74.1001764
-74.0677109,4.68151100015377,388,Calle 92A con Carrera 60B,Choque con lesionado,Automóvil particular (1) - Motociclista lesionado (1),Con lesionados,2025/05/02 00:00:00+00,4.681511,-74.0677109
-74.0792823,4.63918680015239,389,"NQS con Calle 59, sentido n→s",Choque con lesionado,Automóvil particular (1) - Motociclista lesionado (1),Con lesionados,2025/05/02 00:00:00+00,4.6391868,-74.0792823
-74.1170251999999,4.62265830015186,390,Carrera 56 con Calle 4D,Choque con lesionado,Automóvil particular (1) - Ciclista lesionado (1),Con lesionados,2025/05/02 00:00:00+00,4.6226583,-74.1170252
-74.1329635,4.61996150015175,391,"Calle 3 con Carrera 70B bis, sentido occ→or",Choque con lesionado,Automóvil particular (1) - Motociclista lesionado (1),Con lesionados,2025/05/02 00:00:00+00,4.6199615,-74.1329635
-74.0687142,4.61655930015166,392,"Carrera 17 con Calle 30, sentido n→s",Autolesionado,Motociclista lesionado (1) - Acompañante lesionado (1),Con lesionados,2025/05/02 00:00:00+00,4.6165593,-74.0687142
-74.1200494999999,4.74421010015578,393,Calle 132D con Carrera 149C,Choque objeto fijo con lesionado,Camioneta (1) - Conductor lesionado (1) - Poste (1),Con lesionados,2025/05/02 00:00:00+00,4.7442101,-74.1200495
-74.0846058,4.74320640015579,394,"Carrera 92 con Calle 147C, sentido n→s",Choque con lesionado,Taxi (1) - Bicitaxi (1) - Pasajero lesionado (1),Con lesionados,2025/05/02 00:00:00+00,4.7432064,-74.0846058
-74.1510585999999,4.68180120015377,395,Av Centenario (Calle 13) con Carrera 112A,Choque con lesionado,Vehículo de servicio especial (1) - Motociclista lesionado (1),Con lesionados,2025/05/02 00:00:00+00,4.6818012,-74.1510586
-74.1300668,4.64613250015259,396,"Av Boyacá con Calle 12B, sentido n→s",Choque simple,Automóvil particular (2),Sin lesionados,2025/05/02 00:00:00+00,4.6461325,-74.1300668
-74.0676832999999,4.64434430015256,397,Calle 57 con Carrera 16,Choque con lesionado,Motocicleta (1) - Ciclista lesionado (1),Con lesionados,2025/05/02 00:00:00+00,4.6443443,-74.0676833
-74.1126963999999,4.6561232001529,398,NQS con Av La Esperanza,Choque con lesionado,Automóvil particular (1) - Motociclista lesionado (1),Con lesionados,2025/05/02 00:00:00+00,4.6561232,-74.1126964
-74.0878384,4.60939410015139,399,Carrera 1A con Calle 12B,Atropello,Camioneta (1) - Peatón lesionado (1),Con lesionados,2025/05/02 00:00:00+00,4.6093941,-74.0878384
-74.1844235,4.61900720015173,400,"Av Ciudad de Cali con Calle 58 sur, sentido n→s",Choque con lesionado,Camión (1) - Motociclista lesionado (1),Con lesionados,2025/05/02 00:00:00+00,4.6190072,-74.1844235
-74.1103098999999,4.62221580015183,401,"Av Américas con Carrera 50, sentido occ→or",Choque simple,Automóvil particular (2),Sin lesionados,2025/05/02 00:00:00+00,4.6222158,-74.1103099
-74.1059394,4.70756190015459,402,Transversal 94 con Calle 80D,Choque con lesionado,Camión (1) - Motociclista lesionado (1),Con lesionados,2025/05/02 00:00:00+00,4.7075619,-74.1059394
-74.0415879,4.77939830015691,403,"Autopista Norte con Calle 200, sentido s→n",Atropello,Camioneta (1) - Peatón lesionado (1),Con lesionados,2025/05/02 00:00:00+00,4.7793983,-74.0415879
-74.1227375999999,4.58724740015067,404,"Carrera 31 con Calle 38A sur, sentido n→s",Choque con lesionado,Automóvil particular (1) - Motociclista lesionado (1),Con lesionados,2025/05/02 00:00:00+00,4.5872474,-74.1227376
-74.1177228,4.71658930015492,405,"Av Calle 80 con Carrera 110, sentido occ→or",Choque con lesionado,Automóvil particular (1) - Motocicleta (3) - Motociclista lesionado (2),Con lesionados,2025/05/02 00:00:00+00,4.7165893,-74.1177228
-74.0927985,4.57838470015042,406,Av Carrera 10 con Calle 17 sur,Falla semafórica,Intersección semafórica (1),Sin lesionados,2025/05/02 00:00:00+00,4.5783847,-74.0927985
-74.0559236,4.72439260015515,407,Calle 137A con Carrera 52A,Choque con lesionado,Automóvil particular (1) - Motociclista lesionado (1),Con lesionados,2025/05/02 00:00:00+00,4.7243926,-74.0559236
-74.1148196999999,4.597744200151,408,Av Primero de Mayo con Carrera 36,Falla semafórica,Intersección semafórica (1),Sin lesionados,2025/05/02 00:00:00+00,4.5977442,-74.1148197
-74.1936188999999,4.63622800015231,409,Calle 57A sur con Carrera 97A,Choque con lesionado,Automóvil particular (1) - Motociclista lesionado (1),Con lesionados,2025/05/02 00:00:00+00,4.636228,-74.1936189
-74.1617308,4.62345160015189,410,Av Agoberto Mejía con Calle 41B sur,Choque con lesionado,Motocicleta (3) - Motociclista lesionado (2),Con lesionados,2025/05/02 00:00:00+00,4.6234516,-74.1617308
-74.0828979999999,4.60594520015131,411,"Av Centenario (Calle 13) con Av Carrera 68, sentido or→occ","Sustancia química en vía (aceite, ACPM, otros)",Aceite (1),Sin lesionados,2025/05/02 00:00:00+00,4.6059452,-74.082898
-74.0708939,4.64079540015244,412,"Calle 52A con Carrera 19, sentido or→occ",Choque con lesionado,Automóvil particular (1) - Motociclista lesionado (1),Con lesionados,2025/05/02 00:00:00+00,4.6407954,-74.0708939
-74.0753016,4.72040510015503,413,Av Boyacá con Calle 129,Atropello,Motocarro / Mototriciclo (1) - Peatón lesionado (1),Con lesionados,2025/05/02 00:00:00+00,4.7204051,-74.0753016
-74.0942486,4.55140960014953,414,Calle 40 sur con Carrera 3A este,Caida de ocupante,Bus SITP (1) - Pasajero lesionado (1),Con lesionados,2025/05/02 00:00:00+00,4.5514096,-74.0942486
-74.0944689999999,4.53990640014917,415,Carrera 4B este con Calle 49 sur,Choque con lesionado,Automóvil particular (1) - Animal de compañía (1),Con lesionados,2025/05/02 00:00:00+00,4.5399064,-74.094469
-74.1411892,4.66717640015332,416,Av Centenario (Calle 13) con Carrera 96B,Choque con lesionado,Camión (1) - Ciclista lesionado (1),Con lesionados,2025/05/02 00:00:00+00,4.6671764,-74.1411892
-74.1342144,4.59407950015088,417,"Autopista Sur con Carrera 51D, sentido occ→or",Varado,Volqueta (1),Sin lesionados,2025/05/02 00:00:00+00,4.5940795,-74.1342144
-74.1529646,4.61808480015172,418,Calle 40 sur con Carrera 77A,Choque con lesionado,Camioneta (1) - Motociclista lesionado (1) - Acompañante lesionado (1),Con lesionados,2025/05/02 00:00:00+00,4.6180848,-74.1529646
-74.1800827,4.58928930015079,419,Diagonal 81D con Carrera 76F,Choque simple,Camión (1) - Bus SITP (1),Sin lesionados,2025/05/02 00:00:00+00,4.5892893,-74.1800827
-74.0445407999999,4.76475470015644,420,"Autopista Norte con Calle 187, sentido n→s",Choque simple,Automóvil particular (1) - Motocicleta (1),Sin lesionados,2025/05/02 00:00:00+00,4.7647547,-74.0445408
-74.1644484,4.62253840015185,421,Carrera 80C con Calle 42C sur,Choque simple,Automóvil particular (2),Sin lesionados,2025/05/02 00:00:00+00,4.6225384,-74.1644484
-74.0846644,4.62307260015186,422,NQS con Calle 22C,Choque con lesionado,Tractocamión (1) - Automóvil particular (1) - Motociclista lesionado (1),Con lesionados,2025/05/02 00:00:00+00,4.6230726,-74.0846644
-74.0720919999999,4.71098860015473,423,Carrera 27 con Calle 38A sur,Choque con lesionado,Automóvil particular (2) - Conductor lesionado (1),Con lesionados,2025/05/02 00:00:00+00,4.7109886,-74.072092
-74.0654714999999,4.62953930015205,424,Calle 42A sur con Carrera 7A este,Choque simple,Automóvil particular (2),Sin lesionados,2025/05/02 00:00:00+00,4.6295393,-74.0654715
-74.0903876,4.63433500015219,425,"Av Boyacá con Av El Dorado (Calle 26), sentido s→n",Varado,Bus SITP (1),Sin lesionados,2025/05/02 00:00:00+00,4.634335,-74.0903876
-74.1018749999999,4.58535580015064,426,"Carrera 19 con Calle 18 sur, sentido n→s",Choque con lesionado,Automóvil particular (1) - Motociclista lesionado (1),Con lesionados,2025/05/02 00:00:00+00,4.5853558,-74.101875
-74.1378,4.63044000015207,427,"Av Américas con Av Boyacá, sentido occ→or",Choque simple,,Sin lesionados,2025/05/02 00:00:00+00,4.63044,-74.1378
-74.1001764,4.68035670015373,428,"Av Boyacá con Calle 18, sentido s→n",Choque simple,Camión (1) - Automóvil particular (1),Sin lesionados,2025/05/02 00:00:00+00,4.6803567,-74.1001764
-74.0962254,4.74674170015586,429,Av Ciudad de Cali con Av Suba,Atropello,Automóvil particular (1) - Peatón lesionado (1),Con lesionados,2025/05/02 00:00:00+00,4.7467417,-74.0962254
-74.1380382,4.71144130015473,430,Carrera 115D con Calle 65A,Atropello,Patineta (1) - Peatón lesionado (1),Con lesionados,2025/05/02 00:00:00+00,4.7114413,-74.1380382
-74.0696308,4.71610930015486,431,"Carrera 58 con Calle 128B, sentido s→n",Choque simple,,Sin lesionados,2025/05/02 00:00:00+00,4.7161093,-74.0696308
-74.1132774,4.63297180015219,432,Av Centenario (Calle 13) con Carrera 62,Autolesionado,Motociclista lesionado (1),Con lesionados,2025/05/02 00:00:00+00,4.6329718,-74.1132774
-74.0808438999999,4.60814230015138,433,Calle 16 con Carrera 17,Choque simple,Motocicleta (2),Sin lesionados,2025/05/02 00:00:00+00,4.6081423,-74.0808439
-74.1242329999999,4.71916210015499,434,Vía Bogotá - Cota con Carrera 114,Choque simple,,Sin lesionados,2025/05/02 00:00:00+00,4.7191621,-74.124233
-74.1351657,4.66027400015309,435,"Av Centenario (Calle 13) con Av Ciudad de Cali, sentido occ→or",Varado,Tractocamión (1),Sin lesionados,2025/05/02 00:00:00+00,4.660274,-74.1351657
-74.0842216999999,4.64575060015258,436,"Calle 53 con Carrera 45, sentido occ→or",Choque simple,,Sin lesionados,2025/05/02 00:00:00+00,4.6457506,-74.0842217
-74.1482204,4.67570450015357,437,Carrera 104B con Calle 17,Atropello,Motocicleta (1) - Peatón lesionado (1),Con lesionados,2025/05/02 00:00:00+00,4.6757045,-74.1482204
-74.0663284,4.73601770015553,438,Av Boyacá con Av Suba,Choque con lesionado,Motocicleta (1) - Motociclista lesionado (1),Con lesionados,2025/05/02 00:00:00+00,4.7360177,-74.0663284
-74.1103098999999,4.62221580015183,439,"Carrera 50 con Av Primero de Mayo, sentido n→s",Choque simple,,Sin lesionados,2025/05/02 00:00:00+00,4.6222158,-74.1103099
-74.0871170999999,4.60079590015112,440,Calle 7 bis con Carrera 18,Choque simple,Automóvil particular (1) - Carreta (1),Sin lesionados,2025/05/02 00:00:00+00,4.6007959,-74.0871171
-74.0687154999999,4.62613670015199,441,"Av Caracas con Calle 38 sur, sentido s→n",Choque con lesionado,Camión (1) - Motociclista lesionado (1),Con lesionados,2025/05/02 00:00:00+00,4.6261367,-74.0687155
-74.1368791,4.71395860015483,442,Carrera 117A con Calle 69,Choque con objeto fijo,Camión (1) - Vivienda (1),Sin lesionados,2025/05/02 00:00:00+00,4.7139586,-74.1368791
-74.1907308,4.62699230015198,443,Carrera 88F con Calle 58D sur,Choque con lesionado,Automóvil particular (1) - Motociclista lesionado (1) - Acompañante lesionado (1),Con lesionados,2025/05/02 00:00:00+00,4.6269923,-74.1907308
-74.0689197,4.62100560015179,444,Carrera 13A con Calle 33B sur,Autolesionado,Motociclista lesionado (1) - Acompañante lesionado (1),Con lesionados,2025/05/02 00:00:00+00,4.6210056,-74.0689197
-74.0481124,4.68477600015387,445,Calle 100 con Carrera 15,Choque simple,Automóvil particular (2),Sin lesionados,2025/05/02 00:00:00+00,4.684776,-74.0481124
-74.1746042999999,4.59645690015096,446,Autopista Sur con Carrera 67C,Choque simple,Automóvil particular (2),Sin lesionados,2025/05/02 00:00:00+00,4.5964569,-74.1746043
-74.0720919999999,4.71098860015473,447,"Av Chile (Calle 72) con Carrera 71, sentido or→occ",Choque simple,,Sin lesionados,2025/05/02 00:00:00+00,4.7109886,-74.072092
-74.0347705999999,4.68897930015399,448,Av Carrera 7 con Calle 40,Choque simple,Camión (1) - Motocicleta (1),Sin lesionados,2025/05/02 00:00:00+00,4.6889793,-74.0347706
-74.1579842,4.56831570015005,449,Transversal 39 con Calle 69K sur,Choque con objeto fijo,Automóvil particular (1) - Vivienda (1),Sin lesionados,2025/05/02 00:00:00+00,4.5683157,-74.1579842
-74.0747175,4.63745030015234,450,Carrera 24 con Calle 47 sur,Choque simple,Volqueta (1) - Taxi (2),Sin lesionados,2025/05/02 00:00:00+00,4.6374503,-74.0747175
-74.091219,4.60473500015128,451,Carrera 23 con Calle 8,Choque simple,Automóvil particular (2),Sin lesionados,2025/05/02 00:00:00+00,4.604735,-74.091219
-74.112988,4.5689233001501,452,Calle 33 bis sur con Carrera 12G,Choque simple,Automóvil particular (2),Sin lesionados,2025/05/02 00:00:00+00,4.5689233,-74.112988
-74.0882506,4.56509910014997,453,Calle 27 sur con Carrera 3 este,Choque simple,Automóvil particular (1) - Bicicleta (1),Sin lesionados,2025/05/02 00:00:00+00,4.5650991,-74.0882506
-74.174131,4.61603250015165,454,Calle 54 sur con Carrera 80A,Choque simple,Vehículo escolar (1) - Automóvil particular (1),Sin lesionados,2025/05/02 00:00:00+00,4.6160325,-74.174131
-74.1579584999999,4.61626330015166,455,"Av Primero de Mayo con Calle 41C sur, sentido or→occ",Caida de ocupante,Bus / buseta (1) - Pasajero lesionado (1),Con lesionados,2025/05/02 00:00:00+00,4.6162633,-74.1579585
-74.0772193,4.68526740015387,456,Av Carrera 68 con Calle 87,Choque con lesionado,Motocicleta (1) - Motociclista lesionado (1) - Acompañante lesionado (1),Con lesionados,2025/05/02 00:00:00+00,4.6852674,-74.0772193
-74.1126963999999,4.6561232001529,457,"Av Boyacá con Av La Esperanza, sentido s→n",Choque simple,Camión (1) - Automóvil particular (1),Sin lesionados,2025/05/02 00:00:00+00,4.6561232,-74.1126964
-74.122155,4.71954350015499,458,Carrera 113 con Calle 78D,Choque simple,Taxi (1) - Automóvil particular (1),Sin lesionados,2025/05/02 00:00:00+00,4.7195435,-74.122155
-74.1459526,4.67290920015347,459,Carrera 100 con Calle 17,Choque simple,Bus / buseta (1) - Carreta (1),Sin lesionados,2025/05/02 00:00:00+00,4.6729092,-74.1459526
-74.0653115,4.74256590015574,460,Av Boyacá con Calle 153,Choque simple,Automóvil particular (1) - Motocicleta (1),Sin lesionados,2025/05/02 00:00:00+00,4.7425659,-74.0653115
-74.0664447999999,4.63215870015215,461,Calle 45 con Carrera 13,Autolesionado,Motociclista lesionado (1),Con lesionados,2025/05/02 00:00:00+00,4.6321587,-74.0664448
-74.1011321999999,4.74262060015576,462,"Carrera 109A con Calle 139, sentido n→s",Autolesionado,Motociclista lesionado (1),Con lesionados,2025/05/02 00:00:00+00,4.7426206,-74.1011322
-74.1538328999999,4.64273400015252,463,"Av Ciudad de Cali con Calle 6C, sentido s→n",Choque simple,Camión (1) - Motocicleta (1),Sin lesionados,2025/05/02 00:00:00+00,4.642734,-74.1538329
-74.0234907,4.749690900156,464,"Av Carrera 7 con Calle 172, sentido s→n",Autolesionado,Motociclista lesionado (2),Con lesionados,2025/05/02 00:00:00+00,4.7496909,-74.0234907
-74.0783104,4.61310070015156,465,Carrera 18 con Calle 22,Autolesionado,Motociclista lesionado (1),Con lesionados,2025/05/02 00:00:00+00,4.6131007,-74.0783104
-74.1029498999999,4.65219300015282,466,Av El Dorado (Calle 26) con Av Ciudad de Cali,Choque simple,Automóvil particular (2),Sin lesionados,2025/05/02 00:00:00+00,4.652193,-74.1029499
-74.1211053,4.72134790015507,467,"Av Calle 80 con Carrera 114, sentido occ→or",Choque con lesionado,Camión (1) - Motociclista lesionado (1),Con lesionados,2025/05/02 00:00:00+00,4.7213479,-74.1211053
-74.0848505,4.58922360015073,468,"Av Carrera 10 con Calle 1, sentido n→s",Choque con lesionado,Motocicleta (2) - Conductor lesionado (1),Con lesionados,2025/05/02 00:00:00+00,4.5892236,-74.0848505
-74.109178,4.62910180015207,469,"Av Centenario (Calle 13) con Carrera 87, sentido or→occ",Choque simple,,Sin lesionados,2025/05/02 00:00:00+00,4.6291018,-74.109178
-74.0984247,4.67404510015352,470,Av Rojas con Calle 64B,Choque simple,,Sin lesionados,2025/05/02 00:00:00+00,4.6740451,-74.0984247
-74.1714074,4.59598750015097,471,"Autopista Sur con Carrera 73I, sentido or→occ",Choque simple,,Sin lesionados,2025/05/02 00:00:00+00,4.5959875,-74.1714074
-74.0849863,4.58931550015077,472,"Av Carrera 10 con Av El Dorado (Calle 26), sentido s→n",Choque simple,Bus SITP (1) - Automóvil particular (1),Sin lesionados,2025/05/02 00:00:00+00,4.5893155,-74.0849863
-74.0460487999999,4.75661170015622,473,"Autopista Norte con Calle 176, sentido n→s",Autolesionado,Motociclista lesionado (1),Con lesionados,2025/05/02 00:00:00+00,4.7566117,-74.0460488
-74.1195913999999,4.75001970015599,474,Calle 132B con Carrera 149,Choque con lesionado,Automóvil particular (1) - Ciclista lesionado (1),Con lesionados,2025/05/02 00:00:00+00,4.7500197,-74.1195914
-74.146535,4.59512720015093,475,"Autopista Sur con Calle 45 sur, sentido n→s",Choque simple,Camión (1) - Camioneta (1),Sin lesionados,2025/05/02 00:00:00+00,4.5951272,-74.146535
-74.0980704,4.56149190014982,476,"Carrera 3B con Calle 35 sur, sentido s→n",Atropello,Motocicleta (1) - Peatón lesionado (1),Con lesionados,2025/05/02 00:00:00+00,4.5614919,-74.0980704
-74.1008484,4.67071460015341,477,Av José Celestino Mutis con Carrera 85,Choque simple,Taxi (1) - Motocicleta (1),Sin lesionados,2025/05/02 00:00:00+00,4.6707146,-74.1008484
-74.0828979999999,4.60594520015131,478,Av Centenario (Calle 13) con Carrera 69,Autolesionado,Motociclista lesionado (1),Con lesionados,2025/05/02 00:00:00+00,4.6059452,-74.082898
-74.0347705999999,4.68897930015399,479,"Av Carrera 7 con Calle 244, sentido n→s",Choque con lesionado,Automóvil particular (1) - Motociclista lesionado (1),Con lesionados,2025/05/02 00:00:00+00,4.6889793,-74.0347706
-74.0720919999999,4.71098860015473,480,Carrera 3 con Calle 91A sur,Choque con objeto fijo,Ambulancia (1) - Separador (1),Sin lesionados,2025/05/02 00:00:00+00,4.7109886,-74.072092
-74.1091443999999,4.64624650015264,481,"Av Carrera 68 con Calle 51, sentido s→n",Choque simple,,Sin lesionados,2025/05/02 00:00:00+00,4.6462465,-74.1091444
-74.1143503,4.66499200015322,482,Calle 25B con Carrera 85,Choque con lesionado,Camioneta (1) - Motociclista lesionado (1),Con lesionados,2025/05/02 00:00:00+00,4.664992,-74.1143503
-74.0903876,4.63433500015219,483,"Av Ciudad de Cali con Av El Dorado (Calle 26), sentido s→n",Choque simple,,,2025/05/02 00:00:00+00,4.634335,-74.0903876
-74.0901906,4.68436340015385,484,Carrera 69P con Calle 73,Choque simple,Camión (1) - Motocicleta (1),Sin lesionados,2025/05/02 00:00:00+00,4.6843634,-74.0901906
-74.1008484,4.67071460015341,485,Av José Celestino Mutis con Carrera 108A,Choque con lesionado,Automóvil particular (1) - Motociclista lesionado (1) - Acompañante lesionado (1),Con lesionados,2025/05/02 00:00:00+00,4.6707146,-74.1008484
-74.1008484,4.67071460015341,486,Av Rojas con Av José Celestino Mutis,Choque con lesionado,Taxi (1) - Motociclista lesionado (1),Con lesionados,2025/05/02 00:00:00+00,4.6707146,-74.1008484
-74.0860952,4.73223660015538,487,Carrera 94 con Calle 133,Choque con lesionado,Bicitaxi (1) - Motociclista lesionado (1),Con lesionados,2025/05/02 00:00:00+00,4.7322366,-74.0860952
-74.1545202,4.68395300015382,488,"Av El Dorado (Calle 26) con Carrera 116, sentido or→occ",Choque simple,Taxi (1) - Automóvil particular (1),Sin lesionados,2025/05/02 00:00:00+00,4.683953,-74.1545202
-74.1126963999999,4.6561232001529,489,Av Boyacá con Av La Esperanza,Choque con lesionado,Bus SITP (1) - Motociclista lesionado (1),Con lesionados,2025/05/02 00:00:00+00,4.6561232,-74.1126964
-74.0870437,4.7438313001558,490,Calle 147C con Carrera 95A,Choque con lesionado,Motocicleta (2) - Motociclista lesionado (1),Con lesionados,2025/05/02 00:00:00+00,4.7438313,-74.0870437
-74.1072281,4.69355310015413,491,"Av Ciudad de Cali con Calle 70A, sentido n→s",Choque simple,,Sin lesionados,2025/05/02 00:00:00+00,4.6935531,-74.1072281
-74.1368791,4.71395860015483,492,Carrera 117A con Calle 69,Choque con objeto fijo,Camión (1) - Poste (1),,2025/05/02 00:00:00+00,4.7139586,-74.1368791
-74.1220891999999,4.55781000014976,493,Av Caracas con Carrera 9,Choque simple,Camión (1) - Bus SITP (1),Sin lesionados,2025/05/02 00:00:00+00,4.55781,-74.1220892
-74.1146386,4.67040270015342,494,"Av El Dorado (Calle 26) con Carrera 75, sentido occ→or",Choque simple,,Sin lesionados,2025/05/02 00:00:00+00,4.6704027,-74.1146386
-74.1618746,4.60232070015119,495,"Autopista Sur con Av Ciudad de Villavicencio, sentido or→occ",Choque simple,Volqueta (1) - Automóvil particular (1),Sin lesionados,2025/05/02 00:00:00+00,4.6023207,-74.1618746
-74.1196262,4.64292100015251,496,Calle 17 con Carrera 68D,Choque simple,Camión (1) - Volqueta (1),Sin lesionados,2025/05/02 00:00:00+00,4.642921,-74.1196262
-74.0818636,4.66696280015326,497,Carrera 57B con Calle 67,Choque con lesionado,Automóvil particular (1) - Motociclista lesionado (1),Con lesionados,2025/05/02 00:00:00+00,4.6669628,-74.0818636
-74.1974077,4.60215480015118,498,Carrera 77M con Calle 72 sur,Choque con lesionado,Motocicleta (1) - Ciclista lesionado (1),Con lesionados,2025/05/02 00:00:00+00,4.6021548,-74.1974077
-74.0981748,4.6823840001538,499,"Av Boyacá con Calle 68 bis, sentido n→s",Choque simple,Automóvil particular (1) - Bicicleta (1),Sin lesionados,2025/05/02 00:00:00+00,4.682384,-74.0981748
-74.0495041999999,4.73086740015533,500,"Autopista Norte con Calle 148, sentido s→n",Choque simple,Camión (1) - Automóvil particular (1),Sin lesionados,2025/05/02 00:00:00+00,4.7308674,-74.0495042
-74.0967656999999,4.74575070015583,501,Av Ciudad de Cali con Calle 142,Choque con lesionado,Taxi (1) - Motociclista lesionado (1),Con lesionados,2025/05/02 00:00:00+00,4.7457507,-74.0967657
-74.1340319,4.67906130015368,502,Carrera 97 con Calle 23H,Choque con lesionado,Automóvil particular (2) - Motociclista lesionado (1) - Acompañante lesionado (1),Con lesionados,2025/05/02 00:00:00+00,4.6790613,-74.1340319
-74.1040776999999,4.70751030015458,503,Carrera 92 con Calle 82,Atropello,Taxi (1) - Peatón lesionado (1),Con lesionados,2025/05/02 00:00:00+00,4.7075103,-74.1040777
-74.1103098999999,4.62221580015183,504,Calle 3 con Carrera 50,Choque simple,Motocicleta (2),Sin lesionados,2025/05/02 00:00:00+00,4.6222158,-74.1103099
-74.0959726999999,4.57413170015028,505,Av Carrera 10 con Calle 23,Choque con lesionado,Bus SITP (1) - Automóvil particular (1),Con lesionados,2025/05/02 00:00:00+00,4.5741317,-74.0959727
-74.1001764,4.68035670015373,506,"Av Boyacá con Carrera 3J, sentido s→n",Autolesionado,Motociclista lesionado (1),Con lesionados,2025/05/02 00:00:00+00,4.6803567,-74.1001764
-74.1265638,4.6734024001535,507,Av La Esperanza con Carrera 90,Choque simple,Camión (1) - Automóvil particular (1),Sin lesionados,2025/05/02 00:00:00+00,4.6734024,-74.1265638
-74.1035763,4.54414480014926,508,Calle 48Q sur con Carrera 2,Atropello,Motociclista lesionado (1) - Peatón lesionado (2),Con lesionados,2025/05/02 00:00:00+00,4.5441448,-74.1035763
-74.0931058,4.57422170015028,509,Av Primero de Mayo con Carrera 8,Choque simple,Taxi (1) - Automóvil particular (1),Sin lesionados,2025/05/02 00:00:00+00,4.5742217,-74.0931058
-74.1001764,4.68035670015373,510,"Av Boyacá con Calle 48A, sentido s→n",Choque simple,Volqueta (1) - Automóvil particular (1),Sin lesionados,2025/05/02 00:00:00+00,4.6803567,-74.1001764
-74.1694272,4.69468110015416,511,"Av Centenario (Calle 13) con Carrera 137, sentido occ→or",Choque simple,,Sin lesionados,2025/05/02 00:00:00+00,4.6946811,-74.1694272
-74.05187,4.71901000015495,512,"Autopista Norte con Calle 134, sentido n→s",Choque simple,Automóvil particular (1) - Motocicleta (1),Sin lesionados,2025/05/02 00:00:00+00,4.71901,-74.05187
-74.1014824,4.62294980015188,513,"NQS con Calle 13, sentido n→s",Choque simple,Camioneta (1) - Motocicleta (1),Sin lesionados,2025/05/02 00:00:00+00,4.6229498,-74.1014824
-74.0479989999999,4.72688420015521,514,Calle 145 con Carrera 21,Choque con lesionado,Automóvil particular (1) - Motociclista lesionado (1),Con lesionados,2025/05/02 00:00:00+00,4.7268842,-74.047999
-74.099464,4.68440410015386,515,Calle 68B con Carrera 73A,Choque simple,Bus SITP (1) - Automóvil particular (1),Sin lesionados,2025/05/02 00:00:00+00,4.6844041,-74.099464
-74.1116319,4.68712400015393,516,"Calle 64I con Av Ciudad de Cali, sentido or→occ",Atropello,Motocicleta (1) - Peatón lesionado (1),Con lesionados,2025/05/02 00:00:00+00,4.687124,-74.1116319
-74.0979351,4.5720121001502,517,"Av Carrera 10 con Calle 27, sentido s→n",Atropello,Motocicleta (1) - Peatón lesionado (1),Con lesionados,2025/05/02 00:00:00+00,4.5720121,-74.0979351
-74.1008484,4.67071460015341,518,Av José Celestino Mutis con Carrera 35A,Autolesionado,Ciclista lesionado (1),Con lesionados,2025/05/02 00:00:00+00,4.6707146,-74.1008484
-74.1618746,4.60232070015119,519,Autopista Sur con Av Ciudad de Villavicencio,Choque simple,Automóvil particular (1) - Motocicleta (1),Sin lesionados,2025/05/02 00:00:00+00,4.6023207,-74.1618746
-74.0635827,4.66329000015319,520,Diagonal 74 bis con Carrera 20C,Choque con lesionado,Motocicleta (1) - Ciclista lesionado (1),Con lesionados,2025/05/02 00:00:00+00,4.66329,-74.0635827
-74.0720919999999,4.71098860015473,521,Av Américas con Carrera 32,Choque con lesionado,Motociclista lesionado (1) - Ciclista lesionado (1) - Acompañante lesionado (1),Con lesionados,2025/05/02 00:00:00+00,4.7109886,-74.072092
-74.0979738,4.68329250015382,522,Av Boyacá con Calle 68B,Choque con lesionado,Automóvil particular (1) - Ciclista lesionado (1),Con lesionados,2025/05/02 00:00:00+00,4.6832925,-74.0979738
-74.0240009999999,4.73153060015538,523,Av Carrera 7 con Calle 156,Choque con lesionado,Automóvil particular (1) - Motociclista lesionado (1),Con lesionados,2025/05/02 00:00:00+00,4.7315306,-74.024001
-74.1490871,4.67673130015358,524,Calle 17 con Carrera 106,Choque simple,Camión (1) - Automóvil particular (1),Sin lesionados,2025/05/02 00:00:00+00,4.6767313,-74.1490871
-74.1509081999999,4.55742660014971,525,Carrera 18Z con Calle 69C sur,Choque con lesionado,Motociclista lesionado (2) - Acompañante lesionado (1),Con lesionados,2025/05/02 00:00:00+00,4.5574266,-74.1509082
-74.1615088,4.64438410015253,526,"Av Ciudad de Cali con Av Guayacanes, sentido n→s",Choque con lesionado,Automóvil particular (1) - Motociclista lesionado (1),Con lesionados,2025/05/02 00:00:00+00,4.6443841,-74.1615088
-74.1072703,4.59853740015107,527,"NQS con Calle 8 sur, sentido n→s","Sustancia química en vía (aceite, ACPM, otros)",Aceite (1),Sin lesionados,2025/05/02 00:00:00+00,4.5985374,-74.1072703
-74.179387,4.59675590015101,528,"Autopista Sur con Calle 63 sur, sentido occ→or",Caida de carga,Otro (1),Sin lesionados,2025/05/02 00:00:00+00,4.5967559,-74.179387
-74.0800199999999,4.6297900001521,529,"Av El Dorado (Calle 26) con Carrera 33, sentido occ→or",Choque con lesionado,Taxi (1) - Motociclista lesionado (1),Con lesionados,2025/05/02 00:00:00+00,4.62979,-74.08002
-74.1359404,4.63937730015237,530,"Av Boyacá con Calle 9, sentido n→s",Choque con lesionado,Bicicleta (1) - Ciclista lesionado (1),Con lesionados,2025/05/02 00:00:00+00,4.6393773,-74.1359404
-74.1031381,4.72707460015523,531,Carrera 41 con Calle 126B,Choque con lesionado,Automóvil particular (2) - Conductor lesionado (1),Con lesionados,2025/05/02 00:00:00+00,4.7270746,-74.1031381
-74.1336596,4.70479030015454,532,Carrera 112 con Calle 65,Choque con lesionado,Automóvil particular (1) - Motociclista lesionado (1),Con lesionados,2025/05/02 00:00:00+00,4.7047903,-74.1336596
-74.0830073,4.56912770015007,533,Calle 17A sur con Carrera 11C este,Caida de ocupante,Bus SITP (1) - Pasajero lesionado (1),Con lesionados,2025/05/02 00:00:00+00,4.5691277,-74.0830073
-74.1645295,4.61456430015157,534,Av Primero de Mayo con Calle 45 sur,Choque simple,Motocarro / Mototriciclo (1) - Bicicleta (1),Sin lesionados,2025/05/02 00:00:00+00,4.6145643,-74.1645295
-74.105784,4.7474388001559,535,Carrera 11C con Calle 142A,Choque con lesionado,Automóvil particular (1) - Motociclista lesionado (1),Con lesionados,2025/05/02 00:00:00+00,4.7474388,-74.105784
-74.109178,4.62910180015207,536,Av Boyacá con Av Centenario (Calle 13),Choque con lesionado,Motociclista lesionado (2),Con lesionados,2025/05/02 00:00:00+00,4.6291018,-74.109178
-74.0999651,4.73591790015554,537,"Av Ciudad de Cali con Calle 132, sentido s→n",Choque simple,Ambulancia (1) - Motocicleta (1),Sin lesionados,2025/05/02 00:00:00+00,4.7359179,-74.0999651
-74.1239528999999,4.64393890015251,538,"Carrera 69B con Av Centenario (Calle 13), sentido n→s",Choque con lesionado,Motocicleta (2) - Motociclista lesionado (1),Con lesionados,2025/05/02 00:00:00+00,4.6439389,-74.1239529
-74.1228728999999,4.68187820015375,539,Diagonal 25G con Carrera 95,Choque con lesionado,Camioneta (1) - Motociclista lesionado (1),Con lesionados,2025/05/02 00:00:00+00,4.6818782,-74.1228729
-74.1389138,4.56096700014984,540,"Av Boyacá con Calle 60G sur, sentido n→s",Choque con lesionado,Volqueta (1) - Motociclista fallecido (1),Fallecido en vía (980),2025/05/02 00:00:00+00,4.560967,-74.1389138
-74.1250687,4.57031020015013,541,"Calle 46 sur con Av Caracas, sentido or→occ",Choque simple,Camión (1) - Camioneta (1),Sin lesionados,2025/05/02 00:00:00+00,4.5703102,-74.1250687
-74.0973304999999,4.7347244001555,542,Calle 132 con Carrera 102,Choque simple,Tractocamión (1) - Bus / buseta (1),Sin lesionados,2025/05/02 00:00:00+00,4.7347244,-74.0973305
-74.1040776999999,4.70751030015458,543,Calle 82 con Carrera 92,Choque con lesionado,Grúa (1) - Motociclista lesionado (1) - Acompañante lesionado (1),Con lesionados,2025/05/02 00:00:00+00,4.7075103,-74.1040777
-74.0970773,4.71374260015481,544,Calle 90B con Carrera 91,Choque con lesionado,Camión (1) - Motociclista lesionado (1) - Acompañante lesionado (1),Con lesionados,2025/05/02 00:00:00+00,4.7137426,-74.0970773
